"CAMIS";"DBA";"BORO";"BUILDING";"STREET";"ZIPCODE";"PHONE";"CUISINE DESCRIPTION";"INSPECTION DATE";"ACTION";"VIOLATION CODE";"VIOLATION DESCRIPTION";"CRITICAL FLAG";"SCORE";"GRADE";"GRADE DATE";"RECORD DATE";"INSPECTION TYPE";"Latitude";"Longitude";"Community Board";"Council District";"Census Tract";"BIN";"BBL";"NTA";"Location"
"50175835";"MEET & MEAT WILLIAMSBURG INC.";"Brooklyn";"361";"GRAHAM AVENUE";"11211";"6469227528";;"01/01/1900";;;;"Not Applicable";;;;"12/15/2025";;"40.71538795023";"-73.94453783853";"301";"34";"049700";"3068607";"3027540029";"BK90";"POINT (-73.944537838532 40.715387950229)"
"50178920";"GOLDEN NIGHT RESTAURANT INC";"Queens";"136-31";"ROOSEVELT AVENUE";"11354";"9173285912";;"01/01/1900";;;;"Not Applicable";;;;"12/15/2025";;"40.75985985304";"-73.82896809835";"407";"20";"087100";"4112493";"4049800014";"QN22";"POINT (-73.828968098348 40.759859853043)"
"50172221";"THWAITES FAMILY INC";"Queens";"223-01";"LINDEN BOULEVARD";"11411";"7324977257";;"01/01/1900";;;;"Not Applicable";;;;"12/15/2025";;"40.69427599715";"-73.73738186323";"413";"27";"059600";"4244447";"4113240009";"QN33";"POINT (-73.737381863233 40.694275997145)"
"50159499";"SSAW BROOKLYN";"Brooklyn";"330";"SOUTH    3 STREET";"11211";"9292848421";;"01/01/1900";;;;"Not Applicable";;;;"12/15/2025";;"40.70936185284";"-73.95393902359";"301";"34";"052700";"3063348";"3024370007";"BK73";"POINT (-73.953939023593 40.709361852837)"
"50157060";"MEDIUM RARE";"Manhattan";"488";"3 AVENUE";"10016";"3017757903";;"01/01/1900";;;;"Not Applicable";;;;"12/15/2025";;"40.74515535636";"-73.9785450132";"106";"02";"007200";"1018502";"1008890039";"MN20";"POINT (-73.978545013197 40.745155356358)"
"50166523";"CHICKEN AND PIZZA FABENE INC.";"Bronx";"2197";"GRAND CONCOURSE";"10453";"3475959220";;"01/01/1900";;;;"Not Applicable";;;;"12/15/2025";;"40.85576645999";"-73.90098321843";"205";"14";"023704";"2013759";"2031620029";"BX40";"POINT (-73.900983218431 40.855766459992)"
"50164796";"DAMBALLA";"Manhattan";"895";"BROADWAY";"10003";"9177471037";;"01/01/1900";;;;"Not Applicable";;;;"12/15/2025";;"40.73892081205";"-73.98984547329";"105";"03";"005200";"1080760";"1008480015";"MN13";"POINT (-73.989845473293 40.738920812052)"
"50179963";"HACHIKAWA SUSHI";"Queens";"25-67";"FRANCIS LEWIS BOULEVARD";"11358";"7185590825";;"01/01/1900";;;;"Not Applicable";;;;"12/15/2025";;"40.77329949312";"-73.79613971061";"407";"19";"101700";"4129459";"4057690001";"QN47";"POINT (-73.796139710612 40.773299493119)"
"50052956";"CITY VINEYARD";"Manhattan";"233";"WEST STREET";"10013";"6466778350";"American";"05/17/2025";"No violations were recorded at the time of this inspection.";;;"Not Applicable";"0";;;"12/15/2025";"Inter-Agency Task Force / Initial Inspection";"40.72063773974";"-74.0121070387";"101";"01";"003900";"1088459";"1001840008";"MN24";"POINT (-74.012107038703 40.720637739735)"
"41561516";"OBAO";"Manhattan";"647";"9 AVENUE";"10036";"2122458880";"Thai";"09/02/2023";"No violations were recorded at the time of this inspection.";;;"Not Applicable";;;;"12/15/2025";"Smoke-Free Air Act / Initial Inspection";"40.76056884428";"-73.99108030487";"104";"03";"012100";"1026476";"1010550130";"MN15";"POINT (-73.991080304868 40.760568844279)"
"50172847";"LA PIZZA ITALIA";"Manhattan";"493";"AMSTERDAM AVENUE";"10024";"9178990160";;"01/01/1900";;;;"Not Applicable";;;;"12/15/2025";;"40.78611489346";"-73.97614479891";"107";"06";"016900";"1032124";"1012140062";"MN12";"POINT (-73.976144798913 40.78611489346)"
"50179765";"CSN 12 LLC";"Bronx";"452";"EAST  149 STREET";"10455";"6314154216";;"01/01/1900";;;;"Not Applicable";;;;"12/15/2025";;"40.81534289376";"-73.9159605789";"201";"17";"004300";"2000538";"2022930053";"BX39";"POINT (-73.915960578897 40.815342893761)"
"50165998";"URBANA CAFE LLC";"Brooklyn";"1305";"53 STREET";"11219";"7866671495";;"01/01/1900";;;;"Not Applicable";;;;"12/15/2025";;"40.63254739542";"-73.99405177766";"312";"44";"023800";"3138715";"3056630001";"BK88";"POINT (-73.994051777664 40.632547395415)"
"50098126";"HUMAN RESOURCES";"Manhattan";"26";"VANDERBILT AVENUE";"10017";"2128504378";;"01/01/1900";;;;"Not Applicable";;;;"12/15/2025";;"40.75327695428";"-73.97775554801";"105";"04";"009400";"1035360";"1012780020";"MN17";"POINT (-73.977755548006 40.753276954279)"
"50178181";"PRET A MANGER";"Queens";;"JFK TERMINAL    8";"11430";"6464760498";;"01/01/1900";;;;"Not Applicable";;;;"12/15/2025";;"40.64712057458";"-73.79071772554";;;;;;;"POINT (-73.790717725538 40.647120574578)"
"50163575";"EARTHBAR";"Manhattan";"315";"PARK AVENUE SOUTH";"10010";"7144251559";;"01/01/1900";;;;"Not Applicable";;;;"12/15/2025";;"40.74060295264";"-73.98604529137";"105";"02";"006800";"1018063";"1008790081";"MN21";"POINT (-73.986045291374 40.740602952637)"
"50170012";"EMACK & BOLIO'S";"Manhattan";"389";"AMSTERDAM AVENUE";"10024";"5406233457";;"01/01/1900";;;;"Not Applicable";;;;"12/15/2025";;"40.78284361932";"-73.97852921137";"107";"06";"016500";"1030267";"1011507504";"MN12";"POINT (-73.978529211366 40.782843619323)"
"50160994";"JEWEL BOX";"Manhattan";"244";"EAST HOUSTON STREET";"10002";"9176472430";;"01/01/1900";;;;"Not Applicable";;;;"12/15/2025";;"40.72205104325";"-73.98570646348";"103";"02";"003002";"1075675";"1003970065";"MN22";"POINT (-73.985706463483 40.722051043248)"
"50179331";"CHIPOTLE MEXICAN GRILL #3056";"Brooklyn";"1628";"SHORE PARKWAY";"11214";"6143187413";;"01/01/1900";;;;"Not Applicable";;;;"12/15/2025";;"40.59550118521";"-73.99981635955";"311";"43";"029400";"3336456";"3064910011";"BK28";"POINT (-73.99981635955 40.595501185205)"
"50150220";"FAUZIA'S HEAVENLY DELIGHTS";"Manhattan";"517";"CLAYTON ROAD";"10004";"7189305711";;"01/01/1900";;;;"Not Applicable";;;;"12/15/2025";;"40.69105356361";"-74.01962370639";"101";"01";"000500";"1086421";"1000010010";"MN99";"POINT (-74.019623706393 40.691053563611)"
"50165527";"UPSIDE PIZZA";"Manhattan";"2878";"BROADWAY";"10025";"9175878888";;"01/01/1900";;;;"Not Applicable";;;;"12/15/2025";;"40.80534748854";"-73.96582146727";"109";"07";"019900";"1056988";"1018830059";"MN09";"POINT (-73.965821467268 40.805347488536)"
"50177483";"PENN 33RD OPERATING LLC";"Manhattan";"325";"WEST   33 STREET";"10001";"4015622220";;"01/01/1900";;;;"Not Applicable";;;;"12/15/2025";;"40.75190935974";"-73.99485677584";"104";"03";"010300";"1080469";"1007570017";"MN13";"POINT (-73.99485677584 40.751909359737)"
"41248866";"BARAKA BUFFET";"Manhattan";"2546";"FREDERICK DOUGLASS BOULEVARD";;"2124913502";"African";"09/12/2024";"Violations were cited in the following area(s).";"08A";"Establishment is not free of harborage or conditions conducive to rodents, insects or other pests.";"Not Critical";"32";;;"12/15/2025";"Cycle Inspection / Initial Inspection";"0";"0";;;;;"1";;
"50177636";"URBAN MODESTY INC.";"Queens";"25-34";"STEINWAY STREET";"11103";"7182193212";;"01/01/1900";;;;"Not Applicable";;;;"12/15/2025";;"40.76755930246";"-73.91201747007";"401";"22";"014300";"4618943";"4006547503";"QN70";"POINT (-73.912017470074 40.767559302457)"
"50179547";"IKKO HIBACHI SUSHI ASIAN BISTRO";"Bronx";"3938";"EAST TREMONT AVENUE";"10465";"3476215052";;"01/01/1900";;;;"Not Applicable";;;;"12/15/2025";;"40.82126602878";"-73.81855940458";"210";"13";"014400";"2080427";"2055760028";"BX52";"POINT (-73.818559404581 40.821266028784)"
"50165958";"CARPATHIAN BAKERY AND CAFE LLC";"Brooklyn";"318";"CORTELYOU ROAD";"11218";"5165890041";;"01/01/1900";;;;"Not Applicable";;;;"12/15/2025";;"40.63818010687";"-73.9761582539";"312";"39";"049000";"3126676";"3053870007";"BK41";"POINT (-73.976158253899 40.638180106865)"
"50174993";"TIME OUT MARKET (MANHATTAN) LLC";"Manhattan";"124";"EAST   14 STREET";"10003";"6462956778";;"01/01/1900";;;;"Not Applicable";;;;"12/15/2025";;"40.73378522069";"-73.9883921162";"103";"02";"004200";"1084306";"1005590016";"MN22";"POINT (-73.988392116202 40.733785220688)"
"50148497";"SUGARCANE BK";"Brooklyn";"238";"FLATBUSH AVENUE";"11217";"7182303954";"Caribbean";"10/28/2025";"Establishment re-opened by DOHMH.";;;"Not Applicable";"0";"Z";"10/28/2025";"12/15/2025";"Cycle Inspection / Reopening Inspection";"40.68043843927";"-73.97483793391";"306";"39";"012902";"3018609";"3009330041";"BK37";"POINT (-73.974837933912 40.680438439273)"
"50173975";"JUST SALAD 199 LAFAYETTE STREET LLC";"Manhattan";"199";"LAFAYETTE STREET";"10012";"7323004245";;"01/01/1900";;;;"Not Applicable";;;;"12/15/2025";;"40.7212724026";"-73.99800138154";"102";"01";"004500";"1066733";"1004827501";"MN24";"POINT (-73.998001381544 40.721272402604)"
"50108869";"RUMBA MEXICANA SPORTS BAR";"Queens";"182-01";"JAMAICA AVENUE";"11423";"3476050028";;"01/01/1900";;;;"Not Applicable";;;;"12/15/2025";;"40.70872170066";"-73.77898857117";"412";"23";"047000";"4211807";"4099000010";"QN61";"POINT (-73.778988571165 40.708721700661)"
"50179633";"HUDSON CABIN";"Manhattan";"W";"59 ST COLUMBUS CIRCLE";;"6466372137";;"01/01/1900";;;;"Not Applicable";;;;"12/15/2025";;;;;;;;;;
"50161387";"CASA TOSCANA";"Manhattan";"151";"WEST   34 STREET";"10001";"7186078306";;"01/01/1900";;;;"Not Applicable";;;;"12/15/2025";;"40.75050916477";"-73.98947917044";"105";"03";"010900";"1015219";"1008100001";"MN17";"POINT (-73.989479170444 40.750509164767)"
"50167777";"THE FISH BAR";"Bronx";"2421";"ARTHUR AVENUE";"10458";"9178317532";;"01/01/1900";;;;"Not Applicable";;;;"12/15/2025";;"40.85602545758";"-73.88717008998";"206";"15";"038900";"2120567";"2030660022";"BX06";"POINT (-73.887170089976 40.856025457575)"
"50177993";"PIZZA MIA TOMPKINS INC";"Staten Island";"529";"TOMPKINS AVENUE";"10305";"9179135671";;"01/01/1900";;;;"Not Applicable";;;;"12/15/2025";;"40.6128122067";"-74.0714691463";"501";"49";"000800";"5095365";"5028490001";"SI37";"POINT (-74.071469146304 40.612812206701)"
"50124939";"GANDA SUSHI";"Queens";"80-08";"SURREY PLACE";"11432";"6467061421";"Korean";"02/09/2023";"Violations were cited in the following area(s).";"09B";"Thawing procedure improper.";"Not Critical";"10";"A";"02/09/2023";"12/15/2025";"Pre-permit (Operational) / Re-inspection";"40.7263406398";"-73.7893134527";"408";"24";"127700";"4155424";"4072270036";"QN06";"POINT (-73.789313452695 40.726340639803)"
"50132557";"RACKET NYC";"Manhattan";"431";"WEST   16 STREET";"10011";"9176718984";;"01/01/1900";;;;"Not Applicable";;;;"12/15/2025";;"40.74287906166";"-74.00582819427";"104";"03";"008300";"1012543";"1007140016";"MN13";"POINT (-74.005828194273 40.742879061656)"
"50178903";"GOOD DAYS";"Queens";"68-01";"FRESH POND ROAD";"11385";"9293308884";;"01/01/1900";;;;"Not Applicable";;;;"12/15/2025";;"40.7052180312";"-73.89629531233";"405";"30";"058100";"4088015";"4036250031";"QN20";"POINT (-73.896295312326 40.705218031201)"
"50178498";"INSOMNIA COOKIES OPERATORS, LLC";"Brooklyn";"122";"BEDFORD AVENUE";"11249";"8778443131";;"01/01/1900";;;;"Not Applicable";;;;"12/15/2025";;"40.71963076651";"-73.95580059766";"301";"33";"051700";"3061610";"3022970019";"BK73";"POINT (-73.955800597664 40.719630766505)"
"50177723";"GURYS FOOD COURT CORP";"Queens";"74-20";"ROOSEVELT AVENUE";"11372";"3475467235";;"01/01/1900";;;;"Not Applicable";;;;"12/15/2025";;"40.74685963813";"-73.89115597558";"404";"25";"026700";"4036717";"4014850023";"QN29";"POINT (-73.891155975578 40.746859638127)"
"50129304";"HOT TUK";"Manhattan";"42";"WEST   42 STREET";"10036";"7185781195";;"01/01/1900";;;;"Not Applicable";;;;"12/15/2025";;"40.75406823942";"-73.98232117075";"105";"04";"008400";"1085593";"1012570002";"MN17";"POINT (-73.982321170752 40.754068239421)"
"50178532";"JOYBITE TANGHULU INC";"Manhattan";"42";"BROADWAY";"10004";"3479232084";;"01/01/1900";;;;"Not Applicable";;;;"12/15/2025";;"40.70626329736";"-74.01290873417";"101";"01";"000900";"1000812";"1000220020";"MN25";"POINT (-74.012908734166 40.706263297358)"
"50175063";"SAVORY DELI LLC";"Brooklyn";"30";"HUDSON YARDS";;"2127576100";;"01/01/1900";;;;"Not Applicable";;;;"12/15/2025";;"0";"0";;;;;"3";;
"50160252";"LAZIZA";"Brooklyn";"306A";"MALCOLM X BOULEVARD";"11233";"9178346887";;"01/01/1900";;;;"Not Applicable";;;;"12/15/2025";;"40.68241189654";"-73.92896435001";"303";"36";"029700";"3047160";"3016760043";"BK61";"POINT (-73.928964350006 40.682411896544)"
"50174194";"Crispy Karma";"Manhattan";"750";"8 AVENUE";"10036";"5166337237";;"01/01/1900";;;;"Not Applicable";;;;"12/15/2025";;"40.75987137906";"-73.98784970528";"105";"03";"012500";"1024736";"1010187502";"MN17";"POINT (-73.987849705278 40.759871379059)"
"50175173";"NINJA JAPAN TERIYAKI & SUSHI";"Bronx";"2438";"JEROME AVENUE";"10468";"6466959927";;"01/01/1900";;;;"Not Applicable";;;;"12/15/2025";;"40.86208809471";"-73.90158475312";"205";"14";"023900";"2014100";"2031880029";"BX40";"POINT (-73.901584753118 40.862088094713)"
"50179210";"OUMA'S CAFE";"Brooklyn";"676";"FLATBUSH AVENUE";"11225";"6464207609";;"01/01/1900";;;;"Not Applicable";;;;"12/15/2025";;"40.6568895821";"-73.96017808329";"309";"40";"079802";"3114643";"3050260241";"BK60";"POINT (-73.960178083285 40.6568895821)"
"50179217";"Red Poke";"Manhattan";"598";"9 AVENUE";"10036";"9177473395";;"01/01/1900";;;;"Not Applicable";;;;"12/15/2025";;"40.75894128667";"-73.99223922537";"104";"03";"012100";"1024955";"1010330161";"MN15";"POINT (-73.992239225365 40.758941286674)"
"50165012";"PAVIN86";"Manhattan";"1663";"1 AVENUE";"10028";"3473984583";;"01/01/1900";;;;"Not Applicable";;;;"12/15/2025";;"40.77723779806";"-73.94911860109";"108";"05";"014602";"1050033";"1015490029";"MN32";"POINT (-73.949118601091 40.777237798059)"
"50178803";"AAA KENNEDY FRIED CHICKEN 1 CORP";"Manhattan";"253";"BROADWAY";"10007";"3472914783";;"01/01/1900";;;;"Not Applicable";;;;"12/15/2025";;"40.71325747958";"-74.00706285662";"101";"01";"002100";"1082757";"1001347501";"MN24";"POINT (-74.007062856622 40.713257479583)"
"50172518";"KLIO RESTAURANT & BAR";"Queens";"107-02";"QUEENS BOULEVARD";"11375";"7182472545";;"01/01/1900";;;;"Not Applicable";;;;"12/15/2025";;"40.72182255727";"-73.84620243037";"406";"29";"071100";"4077483";"4032380044";"QN17";"POINT (-73.846202430368 40.721822557273)"
"50179780";"Sesh Comedy";"Manhattan";"55";"CHRYSTIE STREET";"10002";"4846786440";;"01/01/1900";;;;"Not Applicable";;;;"12/15/2025";;"40.71635093007";"-73.99472605849";"103";"01";"001600";"1003915";"1003030027";"MN27";"POINT (-73.994726058491 40.71635093007)"
"50173977";"MODERN BREAD AND BAGEL";"Manhattan";"630";"LEXINGTON AVENUE";"10022";"6469744046";;"01/01/1900";;;;"Not Applicable";;;;"12/15/2025";;"40.75880605572";"-73.97068237943";"105";"04";"010000";"1071457";"1013087502";"MN19";"POINT (-73.970682379431 40.758806055716)"
"50116556";"WENDY'S";"Queens";"1";"MAIN TERMINAL";;"9173282791";;"01/01/1900";;;;"Not Applicable";;;;"12/15/2025";;"0";"0";;;;;"4";;
"50158877";"CAFE COLMADO";"Manhattan";"286";"BROOME STREET";"10002";"9178285793";"Coffee/Tea";"05/17/2025";"No violations were recorded at the time of this inspection.";;;"Not Applicable";"0";;;"12/15/2025";"Inter-Agency Task Force / Initial Inspection";"40.71851361421";"-73.99150802823";"103";"01";"001800";"1005467";"1004140030";"MN27";"POINT (-73.991508028231 40.718513614205)"
"50175941";"SOFT BAR";"Brooklyn";"200";"BANKER STREET";"11222";"9257592180";;"01/01/1900";;;;"Not Applicable";;;;"12/15/2025";;"40.72512846176";"-73.95560933048";"301";"33";"056100";"3330094";"3026150019";"BK76";"POINT (-73.955609330476 40.725128461762)"
"50141923";"8-BIT BITES";"Manhattan";"77";"2 AVENUE";"10003";"9176456213";"American";"07/17/2025";"Violations were cited in the following area(s).";"09B";"Thawing procedure improper.";"Not Critical";"13";"A";"07/17/2025";"12/15/2025";"Cycle Inspection / Re-inspection";"40.72647873558";"-73.98921599442";"103";"02";"003800";"1006593";"1004600037";"MN22";"POINT (-73.989215994423 40.726478735577)"
"50174513";"DON PABLO RESTAURANT CORP.";"Brooklyn";"342";"RIDGEWOOD AVENUE";"11208";"3479376584";;"01/01/1900";;;;"Not Applicable";;;;"12/15/2025";;"40.68452447632";"-73.87622627686";"305";"37";"117601";"3323914";"3041270031";"BK83";"POINT (-73.876226276864 40.684524476316)"
"50160749";"ELSA";"Brooklyn";"136";"ATLANTIC AVENUE";"11201";"9176406842";;"01/01/1900";;;;"Not Applicable";;;;"12/15/2025";;"40.69046776287";"-73.99524015734";"306";"39";"004500";"3002945";"3002850017";"BK33";"POINT (-73.995240157336 40.690467762866)"
"50174997";"TIME OUT MARKET (MANHATTAN) LLC";"Manhattan";"124";"EAST   14 STREET";"10003";"6462956778";;"01/01/1900";;;;"Not Applicable";;;;"12/15/2025";;"40.73378522069";"-73.9883921162";"103";"02";"004200";"1084306";"1005590016";"MN22";"POINT (-73.988392116202 40.733785220688)"
"50062852";"LILLY'S CRAFT AND KITCHEN";"Manhattan";"675B";"9 AVENUE";"10036";"2127570373";"American";"05/18/2024";"No violations were recorded at the time of this inspection.";;;"Not Applicable";"0";;;"12/15/2025";"Inter-Agency Task Force / Initial Inspection";"40.76135105463";"-73.9905098523";"104";"03";"012700";;"1";"MN15";"POINT (-73.990509852302 40.761351054632)"
"50176129";"FELIX EMPANADAS";"Manhattan";"192";"ORCHARD STREET";"10002";"3058782371";;"01/01/1900";;;;"Not Applicable";;;;"12/15/2025";;"40.72217208951";"-73.98813078728";"103";"01";"003001";"1005394";"1004120011";"MN27";"POINT (-73.988130787275 40.722172089509)"
"50178030";"AC GELATO QUEENS CENTER LLC";"Queens";"90-15";"QUEENS BOULEVARD";"11373";"9176627728";;"01/01/1900";;;;"Not Applicable";;;;"12/15/2025";;"40.73384018201";"-73.87157703381";"404";"25";"068300";"4045999";"4018600100";"QN29";"POINT (-73.871577033806 40.733840182011)"
"50150941";"UMBRA";"Brooklyn";"785";"HART STREET";"11237";"3154121255";;"01/01/1900";;;;"Not Applicable";;;;"12/15/2025";;"40.70095221302";"-73.92370786312";"304";"34";"042900";"3073187";"3032190040";"BK77";"POINT (-73.92370786312 40.70095221302)"
"50142159";"THE ATRIUM AT LAGUARDIA - ORPHEUS AND APOLLO LOUNGE";"Queens";"1";"CENTRAL TERMINAL";;"9723556751";;"01/01/1900";;;;"Not Applicable";;;;"12/15/2025";;"0";"0";;;;;"4";;
"50170104";"ALIDORO/DUNKIN";"Queens";;"BLVD TERMINAL    8";;"6464508644";;"01/01/1900";;;;"Not Applicable";;;;"12/15/2025";;;;;;;;;;
"50161590";"MOONDOG HIFI";"Brooklyn";"119";"INGRAHAM STREET";"11237";"7182553388";;"01/01/1900";;;;"Not Applicable";;;;"12/15/2025";;"40.70751576297";"-73.92923686528";"301";"34";"045300";"3070614";"3029920033";"BK77";"POINT (-73.929236865277 40.707515762973)"
"50168194";"SUSHI JOURNEY";"Brooklyn";"3068";"BRIGHTON    3 STREET";"11235";"9178226618";;"01/01/1900";;;;"Not Applicable";;;;"12/15/2025";;"40.57751179097";"-73.96438338416";"313";"48";"036200";"3244753";"3086720091";"BK19";"POINT (-73.964383384158 40.577511790971)"
"50149115";"AWESUM DIMSUM";"Queens";"40-05";"SKILLMAN AVENUE";"11104";"6463319993";;"01/01/1900";;;;"Not Applicable";;;;"12/15/2025";;"40.74719586468";"-73.92341650594";"402";"26";"017100";"4002375";"4001830292";"QN31";"POINT (-73.923416505935 40.747195864681)"
"50160484";"BAOBAO SLIDER";"Manhattan";"W";"59 STREET COLUMBUS CIRCLE";;"6466372137";;"01/01/1900";;;;"Not Applicable";;;;"12/15/2025";;;;;;;;;;
"41606171";"IHOP";"Manhattan";;"EAST   14 STREET";;"2123881499";"Pancakes/Waffles";"12/20/2022";"Violations were cited in the following area(s).";"04L";"Evidence of mice or live mice in establishment's food or non-food areas.";"Critical";"35";;;"12/15/2025";"Cycle Inspection / Initial Inspection";;;;;;;;;
"50179446";"RAISING CANE'S #0928";"Queens";"81-11";"ROOSEVELT AVENUE";"11372";"9727693100";;"01/01/1900";;;;"Not Applicable";;;;"12/15/2025";;"40.74755868749";"-73.88465132732";"403";"25";"028300";"4030022";"4012920042";"QN28";"POINT (-73.884651327316 40.747558687486)"
"41543970";"PAUSE CAFE";"Manhattan";"3";"CLINTON SREET";;"2126775415";"Middle Eastern";"02/28/2022";"Violations were cited in the following area(s).";"02B";"Hot food item not held at or above 140º F.";"Critical";"42";"C";"02/28/2022";"12/15/2025";"Cycle Inspection / Re-inspection";"0";"0";;;;;"1";;
"50163960";"KITTY ZHAO";"Manhattan";"280";"BROADWAY";"10007";"1111111111";;"01/01/1900";;;;"Not Applicable";;;;"12/15/2025";;"40.71441033834";"-74.00608902399";"101";"01";"003100";"1079215";"1001530001";"MN24";"POINT (-74.006089023993 40.714410338341)"
"50173914";"ADR VENTURES 10 LLC";"Manhattan";"393";"7 AVENUE";"10001";"9174163773";;"01/01/1900";;;;"Not Applicable";;;;"12/15/2025";;"40.74946359475";"-73.99172422571";"105";"03";"010100";"1015175";"1008070001";"MN17";"POINT (-73.991724225709 40.74946359475)"
"50176570";"TERIYAKI BOWL";"Bronx";"2163A";"WHITE PLAINS ROAD";"10462";"3477255980";;"01/01/1900";;;;"Not Applicable";;;;"12/15/2025";;"40.85535690846";"-73.86767597036";"211";"13";"022401";"2049380";"2043170064";"BX49";"POINT (-73.867675970355 40.855356908456)"
"50063768";"U-GU";"Brooklyn";"541B";"MYRTLE AVENUE";"11205";"7188570222";"Japanese";"12/08/2022";"Violations were cited in the following area(s).";"02B";"Hot TCS food item not held at or above 140 °F.";"Critical";"29";;;"12/15/2025";"Cycle Inspection / Initial Inspection";"40.69378299098";"-73.96276679541";"302";"35";"019100";;"3";"BK69";"POINT (-73.962766795414 40.693782990984)"
"50151025";"CHUANYUE BAR";"Queens";"138-12";"NORTHERN BOULEVARD";"11354";"6462365037";;"01/01/1900";;;;"Not Applicable";;;;"12/15/2025";;"40.76401894318";"-73.82765057651";"407";"20";"086500";"4113290";"4050107505";"QN22";"POINT (-73.827650576514 40.76401894318)"
"50177796";"NYLS";"Manhattan";"234";"CHURCH STREET";"10013";"7043286780";;"01/01/1900";;;;"Not Applicable";;;;"12/15/2025";;"40.71728411068";"-74.00609289495";"101";"01";"003300";"1001957";"1001760001";"MN24";"POINT (-74.006092894945 40.717284110684)"
"50007431";"KHAO KANG";"Queens";"76-20";"WOODSIDE AVENUE";"11373";"7188061807";"Thai";"06/04/2025";"No violations were recorded at the time of this inspection.";;;"Not Applicable";;;;"12/15/2025";"Administrative Miscellaneous / Initial Inspection";"40.74342898426";"-73.88861016487";"404";"25";"048300";"4037790";"4015220010";"QN50";"POINT (-73.888610164872 40.743428984264)"
"50073585";"PUNTO ROJO";"Queens";"147-16";"HILLSIDE AVENUE";"11435";"7186571660";"Spanish";"06/17/2025";"No violations were recorded at the time of this inspection.";;;"Not Applicable";;;;"12/15/2025";"Administrative Miscellaneous / Initial Inspection";"40.70587471051";"-73.80919407644";"412";"27";"023800";"4207081";"4096920061";"QN61";"POINT (-73.809194076442 40.70587471051)"
"50172105";"COMAL";"Manhattan";"116";"FORSYTH STREET";"10002";"6568567654";;"01/01/1900";;;;"Not Applicable";;;;"12/15/2025";;"40.71912301946";"-73.99246393719";"103";"01";"001800";"1005583";"1004190040";"MN27";"POINT (-73.992463937193 40.719123019457)"
"50163215";"SUSHI BAR";"Manhattan";"828";"MADISON AVENUE";"10021";"6468861246";;"01/01/1900";;;;"Not Applicable";;;;"12/15/2025";;"40.76993773197";"-73.96678920883";"108";"04";"012200";"1041297";"1013847502";"MN40";"POINT (-73.966789208831 40.769937731973)"
"41606171";"IHOP";"Manhattan";;"EAST   14 STREET";;"2123881499";"Pancakes/Waffles";"09/10/2025";"Violations were cited in the following area(s).";"08A";"Establishment is not free of harborage or conditions conducive to rodents, insects or other pests.";"Not Critical";"13";"A";"09/10/2025";"12/15/2025";"Cycle Inspection / Re-inspection";;;;;;;;;
"41629759";"PL LOUNGE RESTAURANT";"Queens";;"65 STREET";;"6463265165";"Latin American";"08/18/2021";"Violations were cited in the following area(s).";"10H";"Proper sanitization not provided for utensil ware washing operation.";"Not Critical";"12";"A";"08/18/2021";"12/15/2025";"Cycle Inspection / Initial Inspection";;;;;;;;;
"50160162";"U BEST BAKERY";"Queens";"136-18";"MAPLE AVENUE";"11355";"9178595607";"Bakery Products/Desserts";"08/05/2025";"Establishment re-opened by DOHMH.";;;"Not Applicable";"0";;;"12/15/2025";"Pre-permit (Operational) / Reopening Inspection";"40.75552700182";"-73.82788920215";"407";"20";"085300";"4623184";"4051357503";"QN22";"POINT (-73.82788920215 40.755527001819)"
"50166446";"SMASHED EAST VILLAGE";"Manhattan";"94";"3 AVENUE";"10003";"2129310770";;"01/01/1900";;;;"Not Applicable";;;;"12/15/2025";;"40.73222340606";"-73.98797022878";"103";"02";"004200";"1084939";"1005580032";"MN22";"POINT (-73.98797022878 40.732223406058)"
"50173955";"THE TASTE OF NORTH CHINA NY INC.";"Queens";"133-47";"ROOSEVELT AVENUE";"11354";"3475857000";;"01/01/1900";;;;"Not Applicable";;;;"12/15/2025";;"40.75871243216";"-73.83261680949";"407";"20";"087100";"4311709";"4049730046";"QN22";"POINT (-73.832616809491 40.758712432159)"
"50170440";"T&Y KITCHEN";"Brooklyn";"194";"STATE STREET";"11201";"9179304561";;"01/01/1900";;;;"Not Applicable";;;;"12/15/2025";;"40.69047860128";"-73.99258978918";"302";"33";"000900";"3002795";"3002760041";"BK09";"POINT (-73.992589789183 40.690478601278)"
"50167878";"GOLDEN STEAMER I INC.";"Manhattan";"143";"MOTT STREET";"10013";"6465231688";;"01/01/1900";;;;"Not Applicable";;;;"12/15/2025";;"40.71868131037";"-73.99664504941";"102";"01";"004100";"1079581";"1002370019";"MN24";"POINT (-73.996645049413 40.718681310365)"
"50162874";"CRISPY CHICK";"Manhattan";"151";"WEST   34 STREET";"10001";"7186078306";;"01/01/1900";;;;"Not Applicable";;;;"12/15/2025";;"40.75050916477";"-73.98947917044";"105";"03";"010900";"1015219";"1008100001";"MN17";"POINT (-73.989479170444 40.750509164767)"
"50169164";"CAP'T LOUI SUNNYSIDE";"Queens";"43-10";"QUEENS BOULEVARD";"11104";"2016699876";;"01/01/1900";;;;"Not Applicable";;;;"12/15/2025";;"40.74344232566";"-73.92127719751";"402";"26";"018300";"4001993";"4001680031";"QN31";"POINT (-73.921277197511 40.743442325664)"
"50177571";"2ND FLOOR";"Manhattan";"500";"WEST   18 STREET";"10011";"9296675875";;"01/01/1900";;;;"Not Applicable";;;;"12/15/2025";;"40.74490737299";"-74.00704096257";"104";"03";"009900";"1090682";"1006897501";"MN13";"POINT (-74.007040962568 40.744907372989)"
"50174597";"LIFE HEALTH FITNESS";"Queens";"10-24";"154 STREET";"11357";"9178072885";;"01/01/1900";;;;"Not Applicable";;;;"12/15/2025";;"40.79283103067";"-73.80715980399";"407";"19";"098700";"4103094";"4045390061";"QN49";"POINT (-73.807159803992 40.792831030668)"
"50171030";"EL MACO RESTAURANT 2 CORP";"Bronx";"572";"EAST  169 STREET";"10456";"7165259901";;"01/01/1900";;;;"Not Applicable";;;;"12/15/2025";;"40.83207565032";"-73.90304586773";"203";"17";"014900";"2004247";"2026120025";"BX35";"POINT (-73.903045867725 40.832075650317)"
"50167584";"RA BROADWAY FAMOUS PIZZA INC.";"Manhattan";"4250";"BROADWAY";"10033";"3476590828";;"01/01/1900";;;;"Not Applicable";;;;"12/15/2025";;"40.8498983586";"-73.93601041848";"112";"10";"027100";"1081880";"1021630053";"MN35";"POINT (-73.936010418476 40.849898358602)"
"50179818";"LIBERTY BAGELS";"Manhattan";"650";"BROADWAY";"10012";"5164583408";;"01/01/1900";;;;"Not Applicable";;;;"12/15/2025";;"40.72673716801";"-73.99564885871";"102";"02";"005502";"1008420";"1005290004";"MN23";"POINT (-73.995648858706 40.726737168013)"
"50033380";"TEA AND MILK";"Queens";"32-02";"34 AVENUE";"11106";"9174980618";"Coffee/Tea";"10/05/2024";"No violations were recorded at the time of this inspection.";;;"Not Applicable";"0";;;"12/15/2025";"Inter-Agency Task Force / Initial Inspection";"40.75921982372";"-73.92632646798";"401";"22";"005700";"4008195";"4006090027";"QN70";"POINT (-73.926326467979 40.759219823717)"
"50176238";"ARAMARK SERVICES, INC";"Manhattan";"388";"GREENWICH STREET";"10013";"7327785266";;"01/01/1900";;;;"Not Applicable";;;;"12/15/2025";;"40.72065165809";"-74.01009761871";"101";"01";"003900";"1082816";"1002160001";"MN24";"POINT (-74.010097618713 40.720651658088)"
"41656924";"TENZAN";"Manhattan";;"2 AVENUE";;"2129805900";"Japanese";"11/21/2023";"No violations were recorded at the time of this inspection.";;;"Not Applicable";;;;"12/15/2025";"Administrative Miscellaneous / Re-inspection";;;;;;;;;
"50151208";"MIKE DADDY'S PIZZA";"Brooklyn";"566";"7 AVENUE";"11215";"9177709055";;"01/01/1900";;;;"Not Applicable";;;;"12/15/2025";;"40.65948422062";"-73.98819604804";"307";"38";"014700";"3017223";"3008860045";"BK32";"POINT (-73.988196048036 40.659484220623)"
"50160701";"NO CHEWING ALLOWED";"Manhattan";"1802";"65 STREET TRANSVERSE";;"9177706455";;"01/01/1900";;;;"Not Applicable";;;;"12/15/2025";;"0";"0";;;;;"1";;
"50177914";"HARDEE WU INC.";"Brooklyn";"351A";"MYRTLE AVENUE";"11205";"3478897210";;"01/01/1900";;;;"Not Applicable";;;;"12/15/2025";;"40.69322573037";"-73.97218982463";"302";"35";"018501";;"3";"BK68";"POINT (-73.972189824625 40.69322573037)"
"50170795";"MIKES TAVERN";"Queens";"88-14";"LIBERTY AVENUE";"11417";"7188459322";;"01/01/1900";;;;"Not Applicable";;;;"12/15/2025";;"40.67989071724";"-73.8504240542";"410";"32";"005400";"4190613";"4091530007";"QN56";"POINT (-73.850424054203 40.679890717238)"
"50165935";"LE BISTROQUET";"Manhattan";"50";"WEST   22 STREET";"10010";"9297054882";;"01/01/1900";;;;"Not Applicable";;;;"12/15/2025";;"40.74154220872";"-73.99168190885";"105";"03";"005800";"1015549";"1008230070";"MN13";"POINT (-73.991681908845 40.741542208716)"
"50177409";"SHAHS HALAL FOOD";"Manhattan";"179";"MADISON AVENUE";"10016";"6464040697";;"01/01/1900";;;;"Not Applicable";;;;"12/15/2025";;"40.7475221054";"-73.98312051278";"105";"02";"007400";"1017090";"1008630062";"MN17";"POINT (-73.983120512781 40.7475221054)"
"50171043";"BLACK WALNUT";"Brooklyn";"140";"SCHERMERHORN STREET";"11201";"9293371280";;"01/01/1900";;;;"Not Applicable";;;;"12/15/2025";;"40.6897920343";"-73.98814378522";"302";"33";"004300";"3403492";"3001707501";"BK38";"POINT (-73.988143785223 40.689792034304)"
"50168149";"CUERNO";"Manhattan";"1271";"6 AVENUE";"10020";"6464036930";;"01/01/1900";;;;"Not Applicable";;;;"12/15/2025";;"40.76028202058";"-73.98015728348";"105";"04";"013100";"1022709";"1010030029";"MN17";"POINT (-73.98015728348 40.760282020579)"
"50178552";"PIZZA EXPRESS";"Manhattan";"2361";"F DOUGLASS BOULEVARD";"10027";"3479853301";;"01/01/1900";;;;"Not Applicable";;;;"12/15/2025";;"40.8112540405";"-73.9503857746";"110";"09";"021500";"1059344";"1019530034";"MN03";"POINT (-73.950385774601 40.811254040502)"
"50170878";"PANINI CAFE";"Brooklyn";"4017";"8 AVENUE";"11232";"3479557057";;"01/01/1900";;;;"Not Applicable";;;;"12/15/2025";;"40.64655689901";"-73.99802885317";"312";"38";"009000";"3018108";"3009200004";"BK34";"POINT (-73.998028853166 40.646556899005)"
"50161209";"UNITED CHOCOLATE WORKS LLC";"Manhattan";"151";"WEST   34 STREET";"10001";"6462729081";;"01/01/1900";;;;"Not Applicable";;;;"12/15/2025";;"40.75050916477";"-73.98947917044";"105";"03";"010900";"1015219";"1008100001";"MN17";"POINT (-73.989479170444 40.750509164767)"
"50179191";"OPENAI NYC CAFE";"Manhattan";"295";"LAFAYETTE STREET";"10012";"7043286780";;"01/01/1900";;;;"Not Applicable";;;;"12/15/2025";;"40.72453038005";"-73.99576084488";"102";"01";"004300";"1007941";"1005107502";"MN24";"POINT (-73.995760844883 40.724530380047)"
"50178657";"MILANOS FOOD INC";"Manhattan";"2255";"2 AVENUE";"10029";"5169870346";;"01/01/1900";;;;"Not Applicable";;;;"12/15/2025";;"40.79678591402";"-73.9379397654";"111";"08";"018800";"1052538";"1016650028";"MN34";"POINT (-73.937939765404 40.796785914021)"
"50156675";"HEYTEA";"Queens";"42-20";"27 STREET";"11101";"2126849670";;"01/01/1900";;;;"Not Applicable";;;;"12/15/2025";;"40.74973105053";"-73.94025754277";"402";"26";"001900";"4617821";"4004230029";"QN31";"POINT (-73.940257542769 40.749731050533)"
"50160500";"KNOCK OUT CAFE";"Manhattan";"530";"EAST   13 STREET";"10009";"5126263642";;"01/01/1900";;;;"Not Applicable";;;;"12/15/2025";;"40.72924143333";"-73.97974442044";"103";"02";"003400";"1005212";"1004060021";"MN22";"POINT (-73.979744420438 40.729241433332)"
"50157256";"BILLIARDS NUNEZ BAR";"Queens";"111-15";"LEFFERTS BOULEVARD";"11420";"3479659151";;"01/01/1900";;;;"Not Applicable";;;;"12/15/2025";;"40.68022490953";"-73.82121241721";"410";"28";"016600";"4250477";"4116240055";"QN55";"POINT (-73.821212417209 40.680224909526)"
"50179285";"KITCHEN 22 LLC";"Staten Island";"424";"FOREST AVENUE";"10301";"3477334090";;"01/01/1900";;;;"Not Applicable";;;;"12/15/2025";;"40.63081275555";"-74.10348774582";"501";"49";"005900";"5006981";"5002530001";"SI35";"POINT (-74.103487745815 40.630812755552)"
"50144353";"HALAL FLAMEZ";"Manhattan";"527";"MALCOLM X BOULEVARD";"10037";"2127290748";;"01/01/1900";;;;"Not Applicable";;;;"12/15/2025";;"40.81505613422";"-73.94016977359";"110";"09";"022800";"1058333";"1019210032";"MN03";"POINT (-73.940169773591 40.815056134223)"
"50168696";"DYNASTY TASTE JIANG INC";"Staten Island";"77";"RICHMOND HILL ROAD";"10314";"6463557319";;"01/01/1900";;;;"Not Applicable";;;;"12/15/2025";;"40.58783042469";"-74.16563908718";"502";"51";"027706";"5158456";"5023800500";"SI24";"POINT (-74.165639087175 40.587830424688)"
"50175021";"THE TWISTED SPINE";"Brooklyn";"306";"GRAND STREET";"11211";"9136605255";;"01/01/1900";;;;"Not Applicable";;;;"12/15/2025";;"40.71290114507";"-73.95725515574";"301";"34";"052300";"3062826";"3023950014";"BK73";"POINT (-73.957255155736 40.712901145073)"
"50161704";"MAS TACOS";"Manhattan";"2";"PENN PLAZA";"10121";"5169835184";;"01/01/1900";;;;"Not Applicable";;;;"12/15/2025";;"40.75000977422";"-73.99134519403";"105";"03";"010100";"1083026";"1007810002";"MN17";"POINT (-73.991345194031 40.750009774218)"
"50174294";"FGNY LLC";"Manhattan";"144";"8 AVENUE";"10011";"5184079114";;"01/01/1900";;;;"Not Applicable";;;;"12/15/2025";;"40.74174561784";"-74.00105735713";"104";"03";"008100";"1013844";"1007670001";"MN13";"POINT (-74.001057357126 40.741745617836)"
"50150462";"MAMAS CHICKEN CORP";"Queens";"170-12";"JAMAICA AVENUE";"11432";"9179132217";;"01/01/1900";;;;"Not Applicable";;;;"12/15/2025";;"40.70726452979";"-73.78935954977";"412";"27";"044400";"4217480";"4102120003";"QN61";"POINT (-73.789359549765 40.707264529791)"
"50168344";"FIFTHSIP";"Manhattan";"229";"MOTT STREET";"10012";"4258290415";;"01/01/1900";;;;"Not Applicable";;;;"12/15/2025";;"40.72246903555";"-73.99514045562";"102";"01";"004300";"1083324";"1004940025";"MN24";"POINT (-73.99514045562 40.722469035554)"
"50179975";"LA HUECA MANABITA";"Queens";"85-30";"37 AVENUE";"11372";"6469043221";;"01/01/1900";;;;"Not Applicable";;;;"12/15/2025";;"40.75006111293";"-73.88117855291";"403";"21";"027900";"4036240";"4014730001";"QN28";"POINT (-73.881178552913 40.750061112932)"
"50178165";"MOGADOR AT KITH IVY";"Manhattan";"12O";"LEROY STREET";"10014";"6468534708";;"01/01/1900";;;;"Not Applicable";;;;"12/15/2025";;"40.73073907068";"-74.00332669497";"102";"03";"006700";;"1";"MN23";"POINT (-74.003326694966 40.730739070684)"
"50173775";"LIN & DAUGHTERS";"Manhattan";"55";"WEST   26 STREET";"10010";"5166735686";;"01/01/1900";;;;"Not Applicable";;;;"12/15/2025";;"40.74458883562";"-73.9908983996";"105";"03";"005800";"1015632";"1008280001";"MN13";"POINT (-73.9908983996 40.744588835621)"
"50173574";"MI CASA RESTAURANT CON NCY";"Manhattan";"1552";"SAINT NICHOLAS AVENUE";"10040";"6462477757";;"01/01/1900";;;;"Not Applicable";;;;"12/15/2025";;"40.8534085512";"-73.93072217595";"112";"10";"026900";"1063808";"1021580007";"MN35";"POINT (-73.930722175947 40.853408551203)"
"50175963";"DELIGHTFUL HALAL FOOD INC";"Manhattan";"1611";"BROADWAY";"10019";"9173461436";;"01/01/1900";;;;"Not Applicable";;;;"12/15/2025";;"40.76068892274";"-73.98456828578";"105";"03";"012500";"1076195";"1010200046";"MN17";"POINT (-73.984568285784 40.760688922744)"
"50171906";"JERICHO CHEMISTS INC";"Queens";"247-25";"JERICHO TURNPIKE";"11426";"9142169825";;"01/01/1900";;;;"Not Applicable";;;;"12/15/2025";;"40.72557754325";"-73.71999800554";"413";"23";"161700";"4176971";"4086620053";"QN43";"POINT (-73.719998005544 40.725577543254)"
"50173189";"SHIBAIWEI SEAFOOD RESTAURANT";"Queens";"144-18";"NORTHERN BOULEVARD";"11354";"3124041668";;"01/01/1900";;;;"Not Applicable";;;;"12/15/2025";;"40.76468986473";"-73.82302805591";"407";"20";"116300";"4113419";"4050140009";"QN51";"POINT (-73.823028055914 40.764689864729)"
"50179189";"TAOXI TEA";"Staten Island";"2602";"HYLAN BOULEVARD";"10306";"6469968990";;"01/01/1900";;;;"Not Applicable";;;;"12/15/2025";;"40.56893515516";"-74.1112885059";"502";"50";"012804";"5164386";"5039690057";"SI45";"POINT (-74.111288505898 40.568935155161)"
"50170565";"KEANAH WEST VILLAGE LLC";"Manhattan";"323";"WEST   11 STREET";"10014";"9148440228";;"01/01/1900";;;;"Not Applicable";;;;"12/15/2025";;"40.73564926891";"-74.00732865217";"102";"03";"007500";"1078297";"1006340036";"MN23";"POINT (-74.00732865217 40.735649268908)"
"50161022";"EARTH CRUMBL LLC";"Manhattan";"42";"WEST   42 STREET";"10036";"9172315259";;"01/01/1900";;;;"Not Applicable";;;;"12/15/2025";;"40.75406823942";"-73.98232117075";"105";"04";"008400";"1085593";"1012570002";"MN17";"POINT (-73.982321170752 40.754068239421)"
"50179238";"LOCA MADRES INC";"Manhattan";"20";"UNION SQUARE WEST";"10003";"7188971732";;"01/01/1900";;;;"Not Applicable";;;;"12/15/2025";;"40.73660979179";"-73.99067937838";"105";"02";"005200";"1016108";"1008450002";"MN13";"POINT (-73.990679378381 40.736609791786)"
"50179654";"flava of the bronx";"Bronx";"3114";"3 AVENUE";"10451";"6467135060";;"01/01/1900";;;;"Not Applicable";;;;"12/15/2025";;"40.82211637012";"-73.9115692959";"201";"17";"007100";"2001193";"2023640052";"BX34";"POINT (-73.911569295903 40.822116370122)"
"50176011";"PUSH NO FEAR L.L.C.";"Bronx";"766";"LYDIG AVENUE";"10462";"3473070951";;"01/01/1900";;;;"Not Applicable";;;;"12/15/2025";;"40.8544344661";"-73.86513294461";"211";"13";"022404";"2048823";"2042910024";"BX49";"POINT (-73.865132944611 40.854434466104)"
"50177371";"RAN VIET";"Staten Island";"930";"HYLAN BOULEVARD";"10305";"9296796688";;"01/01/1900";;;;"Not Applicable";;;;"12/15/2025";;"40.597805254";"-74.07336871038";"502";"50";"006400";"5047953";"5032660007";"SI14";"POINT (-74.073368710375 40.597805254)"
"50171165";"STRETCH PIZZA";"Brooklyn";"320";"KENT AVENUE";"11249";"6465223284";;"01/01/1900";;;;"Not Applicable";;;;"12/15/2025";;"40.71377451551";"-73.96721048618";"301";"33";"055100";"3426897";"3024140026";"BK73";"POINT (-73.967210486177 40.713774515514)"
"50167299";"QMI GROCERY";"Queens";"74-02";"GRAND AVENUE";"11373";"9293956247";;"01/01/1900";;;;"Not Applicable";;;;"12/15/2025";;"40.73016532116";"-73.8876329778";"405";"30";"049302";"4607792";"4028030023";"QN30";"POINT (-73.887632977798 40.730165321158)"
"50176038";"PARIS BAGUETTE";"Manhattan";"2568";"BROADWAY";"10025";"6507990210";;"01/01/1900";;;;"Not Applicable";;;;"12/15/2025";;"40.79501231667";"-73.97150065871";"107";"07";"018300";"1056064";"1018680044";"MN12";"POINT (-73.971500658714 40.795012316671)"
"50136159";"CONEY ISLAND SHACK TACOS LLC";"Manhattan";;"HIGH SPACE PK   15 ST BY W/S HY";;"3478568356";;"01/01/1900";;;;"Not Applicable";;;;"12/15/2025";;;;;;;;;;
"50150868";"MAGNOLIA BAKERY TCCD";"Queens";;"TERMINAL C CONCOURSE D";;"2159970667";;"01/01/1900";;;;"Not Applicable";;;;"12/15/2025";;;;;;;;;;
"50166612";"GS HOSPITALITY GROUP INC.";"Brooklyn";"3200";"CONEY ISLAND AVENUE";"11235";"9175996178";;"01/01/1900";;;;"Not Applicable";;;;"12/15/2025";;"40.57777645801";"-73.95963146129";"313";"48";"036002";"3245125";"3086920019";"BK19";"POINT (-73.959631461289 40.577776458007)"
"50109489";"MAMA'S PIZZA & CAFE";"Queens";"80-14";"ROOSEVELT AVENUE";"11372";"3477037311";;"01/01/1900";;;;"Not Applicable";;;;"12/15/2025";;"40.74744980064";"-73.88555377675";"404";"25";"026901";"4036844";"4014910007";"QN29";"POINT (-73.88555377675 40.747449800639)"
"50178295";"303 FARE LLC";"Brooklyn";"570";"VANDERBILT AVENUE";"11238";"6465418940";;"01/01/1900";;;;"Not Applicable";;;;"12/15/2025";;"40.67958315893";"-73.96817917496";"308";"35";"016300";"3027882";"3011370056";"BK64";"POINT (-73.968179174958 40.67958315893)"
"50173443";"WENDY'S";"Queens";"88-11";"179 PLACE";"11432";"2126191222";;"01/01/1900";;;;"Not Applicable";;;;"12/15/2025";;"40.71240539387";"-73.78340948999";"412";"23";"046800";"4625391";"4099150028";"QN61";"POINT (-73.783409489987 40.712405393865)"
"50160844";"53 A.D.";"Brooklyn";"53";"SCOTT AVENUE";"11237";"7576753791";;"01/01/1900";;;;"Not Applicable";;;;"12/15/2025";;"40.70951239725";"-73.92257625811";"301";"34";"044900";"3070595";"3029890032";"BK90";"POINT (-73.92257625811 40.709512397246)"
"50176246";"ARAMARK SERVICES INC";"Manhattan";"388";"GREENWICH STREET";"10013";"7327785266";;"01/01/1900";;;;"Not Applicable";;;;"12/15/2025";;"40.72065165809";"-74.01009761871";"101";"01";"003900";"1082816";"1002160001";"MN24";"POINT (-74.010097618713 40.720651658088)"
"50156720";"LELLA ALIMENTARI E CUCINA";"Brooklyn";"141";"HAVEMEYER STREET";"11211";"9175359142";;"01/01/1900";;;;"Not Applicable";;;;"12/15/2025";;"40.71193775138";"-73.95730988254";"301";"34";"052300";"3330370";"3024090003";"BK73";"POINT (-73.957309882539 40.71193775138)"
"50145036";"Make Mier (Unit 1)";"Queens";"133-35";"ROOSEVELT AVENUE";"11354";"9175180803";;"01/01/1900";;;;"Not Applicable";;;;"12/15/2025";;"40.75850199526";"-73.83324180899";"407";"20";"087100";"4112276";"4049730016";"QN22";"POINT (-73.833241808988 40.758501995257)"
"50165056";"CHILL TAVERN BBQ";"Queens";"137-38";"NORTHERN BOULEVARD";"11354";"6469079998";;"01/01/1900";;;;"Not Applicable";;;;"12/15/2025";;"40.76351702858";"-73.82974202314";"407";"20";"086900";"4112348";"4049770035";"QN22";"POINT (-73.829742023143 40.763517028584)"
"50175890";"SORATE";"Manhattan";"30";"EAST   18 STREET";"10003";"7185942393";;"01/01/1900";;;;"Not Applicable";;;;"12/15/2025";;"40.73767743735";"-73.98988174858";"105";"02";"005200";"1016134";"1008460054";"MN13";"POINT (-73.98988174858 40.737677437348)"
"40761262";"CIRCLE IN THE SQUARE THEATRE";"Manhattan";"1633";"BROADWAY";"10019";"2126641591";"American";"06/22/2019";"No violations were recorded at the time of this inspection.";;;"Not Applicable";"0";"A";"06/22/2019";"12/15/2025";"Cycle Inspection / Initial Inspection";"40.76156716221";"-73.98396163419";"105";"03";"013100";"1024812";"1010220043";"MN17";"POINT (-73.983961634192 40.76156716221)"
"50172495";"PITA YEERO";"Manhattan";"1229";"1 AVENUE";"10065";"9176362980";;"01/01/1900";;;;"Not Applicable";;;;"12/15/2025";;"40.76422872594";"-73.9586155284";"108";"05";"011800";"1044742";"1014410025";"MN31";"POINT (-73.9586155284 40.76422872594)"
"50172734";"EARTHBAR";"Manhattan";"69";"PRINCE STREET";"10012";"6465900073";;"01/01/1900";;;;"Not Applicable";;;;"12/15/2025";;"40.72393480661";"-73.99707049951";"102";"01";"004300";"1007942";"1005110001";"MN24";"POINT (-73.997070499512 40.723934806607)"
"50159001";"BB RICHMOND RD LLC";"Staten Island";"2110";"RICHMOND ROAD";"10306";"7182335035";;"01/01/1900";;;;"Not Applicable";;;;"12/15/2025";;"40.58150034808";"-74.11176312908";"502";"50";"011402";"5095447";"5035780009";"SI45";"POINT (-74.111763129075 40.581500348076)"
"50171350";"TIAGO'S PIZZA INC";"Bronx";"55";"WEST  167 STREET";"10452";"7188660060";;"01/01/1900";;;;"Not Applicable";;;;"12/15/2025";;"40.83614309632";"-73.92466531058";"204";"16";"019900";"2003156";"2025100001";"BX26";"POINT (-73.924665310584 40.836143096322)"
"50178605";"Cluck N Moo nyc";"Manhattan";"1636";"SAINT NICHOLAS AVENUE";"10040";"6463273058";;"01/01/1900";;;;"Not Applicable";;;;"12/15/2025";;"40.85602860048";"-73.92880712608";"112";"10";"027700";"1063867";"1021610015";"MN35";"POINT (-73.928807126081 40.856028600477)"
"50143474";"LAWN CLUB";"Manhattan";"1";"FULTON STREET";"10038";"5167136011";"American";"10/18/2025";"No violations were recorded at the time of this inspection.";;;"Not Applicable";"0";;;"12/15/2025";"Inter-Agency Task Force / Initial Inspection";"40.7063133847";"-74.00321726726";"101";"01";"001501";"1001318";"1000960001";"MN25";"POINT (-74.003217267259 40.706313384702)"
"50173360";"GO PICADERA LLC";"Brooklyn";"4820";"4 AVENUE";"11220";"3474639911";;"01/01/1900";;;;"Not Applicable";;;;"12/15/2025";;"40.64742368012";"-74.01159280088";"307";"38";"007800";"3324402";"3007730044";"BK32";"POINT (-74.011592800879 40.647423680116)"
"50164901";"EL PIRATA STREET FOOD";"Manhattan";"111";"WADSWORTH AVENUE";"10033";"16467375602";;"01/01/1900";;;;"Not Applicable";;;;"12/15/2025";;"40.84820218411";"-73.93613856488";"112";"10";"026300";"1079921";"1021620001";"MN36";"POINT (-73.936138564881 40.848202184109)"
"50168972";"ADDA";"Manhattan";"107";"1 AVENUE";"10003";"9175023356";;"01/01/1900";;;;"Not Applicable";;;;"12/15/2025";;"40.72671168591";"-73.98593997415";"103";"02";"003800";"1006286";"1004480030";"MN22";"POINT (-73.985939974146 40.726711685913)"
"50164506";"JUICE TENDERS LLC";"Manhattan";"24";"EAST  116 STREET";"10029";"3059704413";;"01/01/1900";;;;"Not Applicable";;;;"12/15/2025";;"40.80025912946";"-73.94553236697";"111";"09";"018400";"1051653";"1016210060";"MN34";"POINT (-73.945532366972 40.800259129461)"
"50150368";"MACC";"Manhattan";"51";"WEST  106 STREET";"10025";"6463026359";;"01/01/1900";;;;"Not Applicable";;;;"12/15/2025";;"40.79882472493";"-73.96187348288";"107";"07";"019300";"1055650";"1018420013";"MN09";"POINT (-73.961873482878 40.798824724933)"
"50167022";"ODRE YEOUL";"Manhattan";"199";"2 AVENUE";"10003";"6469834556";;"01/01/1900";;;;"Not Applicable";;;;"12/15/2025";;"40.7313448181";"-73.98567920514";"103";"02";"004000";"1006870";"1004680038";"MN22";"POINT (-73.985679205135 40.731344818099)"
"50170989";"PEKING TASTE";"Staten Island";"2343";"RICHMOND AVENUE";"10314";"9292569188";;"01/01/1900";;;;"Not Applicable";;;;"12/15/2025";;"40.59126232384";"-74.16501033182";"502";"51";"027706";"5107370";"5023800040";"SI24";"POINT (-74.16501033182 40.591262323838)"
"50179040";"THE GYRO PROJECT";"Manhattan";"469";"7 AVENUE";"10018";"2129837444";;"01/01/1900";;;;"Not Applicable";;;;"12/15/2025";;"40.75190354457";"-73.98994093719";"105";"03";"010900";"1015234";"1008117501";"MN17";"POINT (-73.989940937192 40.751903544573)"
"50176336";"AFG HOSPITALITY LLC";"Manhattan";"216";"AVENUE A";"10009";"9295034272";;"01/01/1900";;;;"Not Applicable";;;;"12/15/2025";;"40.72995248758";"-73.98067148167";"103";"02";"003400";"1084891";"1004077501";"MN22";"POINT (-73.980671481665 40.729952487577)"
"50052842";"CUP OF BROOKLYN";"Brooklyn";"1071B";"GATES AVENUE";;"9178555647";"Coffee/Tea";"12/19/2022";"Violations were cited in the following area(s).";"04L";"Evidence of mice or live mice in establishment's food or non-food areas.";"Critical";"19";;;"12/15/2025";"Cycle Inspection / Initial Inspection";"0";"0";;;;;"3";;
"50174315";"GOLDBERG AND GERRY’S LLC";"Manhattan";"6";"WEST   14 STREET";"10011";"2126459545";;"01/01/1900";;;;"Not Applicable";;;;"12/15/2025";;"40.7362339912";"-73.99420125663";"102";"02";"006300";"1080157";"1005770037";"MN23";"POINT (-73.994201256632 40.7362339912)"
"50177877";"ICON HEALTHY LIFE LLC";"Bronx";"1231";"EDWARD L GRANT HIGHWAY";"10452";"3478428671";;"01/01/1900";;;;"Not Applicable";;;;"12/15/2025";;"40.83649288275";"-73.92235202474";"204";"16";"019900";"2003083";"2025060062";"BX26";"POINT (-73.922352024739 40.836492882754)"
"50178163";"GODUNK";"Manhattan";"332";"BOWERY";"10012";"2129147892";;"01/01/1900";;;;"Not Applicable";;;;"12/15/2025";;"40.72581747547";"-73.99200858669";"102";"01";"005502";"1008490";"1005300040";"MN23";"POINT (-73.992008586687 40.725817475466)"
"50176441";"Hill Country";"Manhattan";"230";"PARK AVENUE";"10169";"6462075551";;"01/01/1900";;;;"Not Applicable";;;;"12/15/2025";;"40.75450075314";"-73.97595042717";"105";"04";"009200";"1036185";"1013000001";"MN19";"POINT (-73.975950427165 40.75450075314)"
"50173836";"ADOBO MEXICAN GRILL";"Queens";"76-12";"ROOSEVELT AVENUE";"11372";"5169132036";;"01/01/1900";;;;"Not Applicable";;;;"12/15/2025";;"40.74704456271";"-73.88935838113";"404";"25";"026700";"4036751";"4014870006";"QN29";"POINT (-73.889358381126 40.747044562708)"
"50169253";"ICAHN STADIUM";"Manhattan";"10";"CENTRAL ROAD";"10035";"7043286780";;"01/01/1900";;;;"Not Applicable";;;;"12/15/2025";;"40.79226230402";"-73.92382673347";"111";"08";"024000";"1085645";"1018190203";"MN99";"POINT (-73.92382673347 40.792262304015)"
"50175766";"EL ENCEBOLLADO DE VICTOR 4 CORP";"Queens";"98-09";"37 AVENUE";"11368";"6464745263";;"01/01/1900";;;;"Not Applicable";;;;"12/15/2025";;"40.75207612098";"-73.86889973978";"403";"21";"040900";"4043168";"4017390032";"QN26";"POINT (-73.868899739783 40.752076120979)"
"50166985";"MADE IN NEW YORK PIZZA";"Manhattan";"2563";"BROADWAY";"10025";"9175447268";;"01/01/1900";;;;"Not Applicable";;;;"12/15/2025";;"40.79480924812";"-73.97167410351";"107";"07";"018300";"1056068";"1018687501";"MN12";"POINT (-73.971674103509 40.794809248117)"
"41510846";"218 RESTAURANT";"Manhattan";;"GRAND STREET";;"2122268039";"Chinese";"03/06/2025";"Violations were cited in the following area(s).";"04K";"Evidence of rats or live rats in establishment's food or non-food areas.";"Critical";"31";;;"12/15/2025";"Cycle Inspection / Initial Inspection";;;;;;;;;
"50171218";"CHINA WOK STATEN ISLAND INC.";"Staten Island";"8";"NEW DORP LANE";"10306";"6464272793";;"01/01/1900";;;;"Not Applicable";;;;"12/15/2025";;"40.57567077971";"-74.11954673755";"502";"50";"013400";"5057251";"5041910031";"SI45";"POINT (-74.119546737549 40.57567077971)"
"50153385";"DOS TOROS";"Queens";;"AIRPORT";;"5163989952";;"01/01/1900";;;;"Not Applicable";;;;"12/15/2025";;;;;;;;;;
"50171729";"KATI SHOP";"Manhattan";"100";"PARK AVENUE";"10017";"9178681496";;"01/01/1900";;;;"Not Applicable";;;;"12/15/2025";;"40.75099345611";"-73.97850342415";"105";"04";"008200";"1035319";"1012750027";"MN20";"POINT (-73.978503424145 40.750993456113)"
"50109264";"BEST DELI";"Queens";"147-45";"182 STREET";"11413";"7188694668";"American";"09/27/2023";"No violations were recorded at the time of this inspection.";;;"Not Applicable";"0";;;"12/15/2025";"Cycle Inspection / Compliance Inspection";"40.65942387398";"-73.76578789966";"413";"31";"032000";"4286165";"4134080160";"QN03";"POINT (-73.765787899664 40.659423873977)"
"50144113";"SEAPARK NY CORP";"Manhattan";"42";"BROADWAY";"10004";"9176265861";;"01/01/1900";;;;"Not Applicable";;;;"12/15/2025";;"40.70626329736";"-74.01290873417";"101";"01";"000900";"1000812";"1000220020";"MN25";"POINT (-74.012908734166 40.706263297358)"
"50171006";"MI RANCHITO CARNICERIA Y ROSTISERIA";"Brooklyn";"6923";"FORT HAMILTON PARKWAY";"11228";"7183335171";;"01/01/1900";;;;"Not Applicable";;;;"12/15/2025";;"40.62852303175";"-74.01235325246";"310";"38";"020800";"3145948";"3058790001";"BK30";"POINT (-74.012353252458 40.628523031753)"
"50170801";"WAKE UP COFFEE SHOP LTD";"Brooklyn";"1202";"KINGS HIGHWAY";"11229";"7187757690";;"01/01/1900";;;;"Not Applicable";;;;"12/15/2025";;"40.60773621011";"-73.96076213997";"315";"48";"055400";"3329267";"3067950089";"BK25";"POINT (-73.960762139973 40.607736210105)"
"50169445";"EATALY CAFFE ROCKEFELLER";"Manhattan";"1230";"AVENUE OF THE AMERICAS";"10020";"7578180759";;"01/01/1900";;;;"Not Applicable";;;;"12/15/2025";;"40.75897018326";"-73.98108896917";"105";"04";"009600";"1077287";"1012640005";"MN17";"POINT (-73.98108896917 40.758970183257)"
"50179219";"DOUBLEUP EATS";"Brooklyn";"383";"BRIDGE STREET";"11201";"4439834888";;"01/01/1900";;;;"Not Applicable";;;;"12/15/2025";;"40.69169932174";"-73.9852946982";"302";"33";"001500";"3000289";"3001450022";"BK38";"POINT (-73.985294698197 40.691699321741)"
"50165107";"BENTOME, INC";"Manhattan";"7";"EAST   14 STREET";"10003";"5513160839";;"01/01/1900";;;;"Not Applicable";;;;"12/15/2025";;"40.73585241667";"-73.99324506211";"105";"02";"005200";"1016062";"1008420007";"MN13";"POINT (-73.993245062113 40.735852416673)"
"41131002";"TANGRA";"Queens";"3923";"39 PLACE";;"7187868181";"Asian/Asian Fusion";"03/31/2022";"Violations were cited in the following area(s).";"02B";"Hot food item not held at or above 140º F.";"Critical";"22";;;"12/15/2025";"Cycle Inspection / Initial Inspection";"0";"0";;;;;"4";;
"50179827";"MERILIA CAFE RESTAURANT CORP";"Queens";"64-16";"ROOSEVELT AVENUE";"11377";"7183090455";;"01/01/1900";;;;"Not Applicable";;;;"12/15/2025";;"40.74595348824";"-73.89977926428";"402";"26";"026100";"4030105";"4012960034";"QN63";"POINT (-73.899779264281 40.745953488244)"
"50167330";"ATRIUM";"Manhattan";"590";"MADISON AVENUE";"10022";"7043285184";;"01/01/1900";;;;"Not Applicable";;;;"12/15/2025";;"40.76213863739";"-73.97247860557";"105";"04";"011202";"1035778";"1012920015";"MN17";"POINT (-73.972478605572 40.762138637388)"
"50142981";"PIZZA PLUS";"Manhattan";"2253";"3 AVENUE";"10035";"2122892400";"Pizza";"06/09/2025";"Violations were cited in the following area(s).";"04M";"Live roaches in facility's food or non-food area.";"Critical";"62";;;"12/15/2025";"Cycle Inspection / Initial Inspection";"40.80207178244";"-73.93698847123";"111";"08";"019400";"1054626";"1017870001";"MN34";"POINT (-73.936988471232 40.802071782442)"
"50177279";"1502 NY INC";"Manhattan";"1502";"AMSTERDAM AVENUE";"10031";"9173015693";;"01/01/1900";;;;"Not Applicable";;;;"12/15/2025";;"40.81838034186";"-73.95262405187";"109";"07";"022301";"1059764";"1019880029";"MN06";"POINT (-73.952624051867 40.818380341857)"
"50072044";"SUSHI ME";"Queens";"14-18";"150 STREET";"11357";"7183579999";"Japanese";"10/07/2024";"Violations were cited in the following area(s).";"02B";"Hot TCS food item not held at or above 140 °F.";"Critical";"12";"A";"10/07/2024";"12/15/2025";"Cycle Inspection / Initial Inspection";"40.7883567998";"-73.81364060162";"407";"19";"098100";"4105624";"4046600051";"QN49";"POINT (-73.813640601623 40.788356799795)"
"50178536";"BUDDY BUDDY";"Manhattan";"340";"BOWERY";"10012";"4904786";;"01/01/1900";;;;"Not Applicable";;;;"12/15/2025";;"40.72608096646";"-73.9919147502";"102";"02";"005502";"1008488";"1005300036";"MN23";"POINT (-73.991914750195 40.726080966456)"
"50171784";"WP MALCOLM X LLC";"Brooklyn";"234";"MALCOLM X BOULEVARD";"11221";"9177573532";;"01/01/1900";;;;"Not Applicable";;;;"12/15/2025";;"40.68505818566";"-73.9294915505";"303";"36";"029500";"3045829";"3016560044";"BK35";"POINT (-73.929491550498 40.685058185657)"
"50095278";"GOLDEN STAR";"Staten Island";"2110";"CLOVE ROAD";"10305";"7189812828";"Chinese";"06/02/2022";"Violations were cited in the following area(s).";"09B";"Thawing procedures improper.";"Not Critical";"29";;;"12/15/2025";"Cycle Inspection / Initial Inspection";"40.60315367606";"-74.08311227931";"502";"50";"005000";;"5";"SI14";"POINT (-74.083112279312 40.603153676062)"
"50162787";"CHOCOLATE ON TAP";"Manhattan";"1";"HERALD SQUARE";"10001";"5167323754";;"01/01/1900";;;;"Not Applicable";;;;"12/15/2025";;"40.75054190782";"-73.98754102176";"105";"04";"010900";"1089436";"1008100045";"MN17";"POINT (-73.987541021756 40.750541907818)"
"50076322";"OH BOY";"Brooklyn";"84";"HAVEMEYER STREET";"11211";"9174059624";"American";"08/12/2025";"Violations were cited in the following area(s).";"20-06";"Current letter grade or Grade Pending card not posted";"Not Critical";;;;"12/15/2025";"Administrative Miscellaneous / Initial Inspection";"40.71386413659";"-73.95613629993";"301";"34";"051900";"3062492";"3023680023";"BK73";"POINT (-73.956136299926 40.713864136591)"
"50119214";"POPEYES";"Queens";"40-06";"MAIN STREET";"11354";"7188865836";"Cajun";"04/21/2025";"Violations were cited in the following area(s).";"02B";"Hot TCS food item not held at or above 140 °F.";"Critical";"11";"A";"04/21/2025";"12/15/2025";"Cycle Inspection / Initial Inspection";"40.75935367714";"-73.83004870098";"407";"20";"087100";"4114120";"4050360037";"QN22";"POINT (-73.830048700983 40.759353677137)"
"50061162";"CODE RED";"Bronx";"1320";"EAST GUN HILL ROAD";"10469";"7188811808";"Caribbean";"02/20/2024";"Violations were cited in the following area(s).";"04M";"Live roaches in facility's food or non-food area.";"Critical";"40";"C";"02/20/2024";"12/15/2025";"Cycle Inspection / Re-inspection";"40.87137831632";"-73.84802827931";"211";"12";"035000";"2056100";"2045890048";"BX31";"POINT (-73.848028279305 40.871378316319)"
"50141622";"J & J PIZZA";"Brooklyn";"620";"CATON AVENUE";"11218";"3473655536";"Pizza";"06/04/2025";"Violations were cited in the following area(s).";"02B";"Hot TCS food item not held at or above 140 °F.";"Critical";"23";;;"12/15/2025";"Cycle Inspection / Initial Inspection";"40.64769861151";"-73.97432059629";"312";"39";"050400";"3124350";"3053290104";"BK40";"POINT (-73.974320596291 40.647698611505)"
"50135692";"FAUZIA'S HEAVENLY DELIGHTS";"Manhattan";"517";"CLAYTON AVENUE";;"7189305711";;"01/01/1900";;;;"Not Applicable";;;;"12/15/2025";;"0";"0";;;;;"1";;
"50165969";"HALAL DELI & GROCERY";"Brooklyn";"3419";"14 AVENUE";"11218";"7184966639";;"01/01/1900";;;;"Not Applicable";;;;"12/15/2025";;"40.64188927337";"-73.98137090751";"312";"39";"022800";"3125152";"3053510062";"BK88";"POINT (-73.981370907508 40.641889273365)"
"50176916";"SERAFINA";"Manhattan";"300";"EAST   50 STREET";"10022";"2124704148";;"01/01/1900";;;;"Not Applicable";;;;"12/15/2025";;"40.75471295057";"-73.9681720226";"106";"04";"009800";"1080458";"1013420051";"MN19";"POINT (-73.968172022596 40.754712950567)"
"50152312";"MANSION";"Staten Island";"141";"MANSION AVENUE";"10308";"7186059200";;"01/01/1900";;;;"Not Applicable";;;;"12/15/2025";;"40.5446389952";"-74.14053238069";"503";"51";"015603";"5066110";"5052010033";"SI54";"POINT (-74.14053238069 40.544638995201)"
"50127837";"PARIS BAGUETTE";"Queens";"37-38";"JUNCTION BOULEVARD";"11368";"9177743145";"French";"01/17/2025";"Violations were cited in the following area(s).";"02B";"Hot TCS food item not held at or above 140 °F.";"Critical";"12";"A";"01/17/2025";"12/15/2025";"Cycle Inspection / Initial Inspection";"40.7507191268";"-73.87036415448";"403";"21";"027300";"4036660";"4014840025";"QN28";"POINT (-73.870364154484 40.750719126797)"
"50079366";"MARINARA";"Manhattan";"985";"1 AVENUE";"10022";"9172612147";"Pizza";"05/09/2024";"Violations were cited in the following area(s).";"02B";"Hot TCS food item not held at or above 140 °F.";"Critical";"72";;;"12/15/2025";"Cycle Inspection / Initial Inspection";"40.75647393637";"-73.9642656679";"106";"05";"010800";"1076279";"1013470023";"MN19";"POINT (-73.964265667901 40.756473936366)"
"50128762";"DELICIAS EXPRESS II LLC";"0";"33";;;"5166036827";;"01/01/1900";;;;"Not Applicable";;;;"12/15/2025";;;;;;;;;;
"50094650";"ISLAND OYSTERS (Governors Island)";"Manhattan";"10";"SOUTH STREET";"10004";"9172680200";;"01/01/1900";;;;"Not Applicable";;;;"12/15/2025";;"40.70168790108";"-74.01163112586";"101";"01";"000900";"1000003";"1000020002";"MN25";"POINT (-74.011631125861 40.701687901075)"
"50176174";"SPARTAN VARIETY AND ENTERTAINMENT";"Brooklyn";"1151";"EAST   92 STREET";"11236";"3472996447";;"01/01/1900";;;;"Not Applicable";;;;"12/15/2025";;"40.64143144413";"-73.9049994712";"318";"46";"096400";"3229556";"3081800014";"BK50";"POINT (-73.9049994712 40.641431444126)"
"50178329";"APARTMENT RA'EL";"Brooklyn";"1124";"BEDFORD AVENUE";"11216";"9176456228";;"01/01/1900";;;;"Not Applicable";;;;"12/15/2025";;"40.68613580272";"-73.95447435085";"303";"36";"022900";"3397115";"3019747501";"BK69";"POINT (-73.954474350845 40.686135802715)"
"50177035";"OFFICE HOURS 2";"Manhattan";"2";"PENN PLAZA";"10121";"9179162065";;"01/01/1900";;;;"Not Applicable";;;;"12/15/2025";;"40.75000977422";"-73.99134519403";"105";"03";"010100";"1083026";"1007810002";"MN17";"POINT (-73.991345194031 40.750009774218)"
"50174858";"THE FRENCH WORKSHOP";"Queens";"25-33";"BROADWAY";"11106";"7187660949";;"01/01/1900";;;;"Not Applicable";;;;"12/15/2025";;"40.7633079547";"-73.92819546732";"401";"22";"007500";"4624439";"4005790001";"QN70";"POINT (-73.92819546732 40.7633079547)"
"50170531";"FIVE IRON GOLF";"Manhattan";"1290";"AVENUE AMERICAS";;"6094392777";;"01/01/1900";;;;"Not Applicable";;;;"12/15/2025";;"0";"0";;;;;"1";;
"50136554";"SUN HONG WONG SEAFOOD RESTAURANT";"Manhattan";"100";"BOWERY";"10013";"2122268778";"Chinese";"07/28/2025";"Violations were cited in the following area(s).";"04M";"Live roaches in facility's food or non-food area.";"Critical";"47";"C";"07/28/2025";"12/15/2025";"Cycle Inspection / Re-inspection";"40.71770961153";"-73.99520934497";"102";"01";"004100";"1003132";"1002390033";"MN24";"POINT (-73.995209344973 40.717709611528)"
"50175193";"DUE FRATELLI";"Brooklyn";"135";"WYCKOFF AVENUE";"11237";"5168014807";;"01/01/1900";;;;"Not Applicable";;;;"12/15/2025";;"40.70408341509";"-73.91886049164";"304";"37";"044500";"3073933";"3032490002";"BK77";"POINT (-73.918860491636 40.704083415091)"
"50136509";"GONG CHA";"Manhattan";;"PENN STATION";"10121";"6463604266";"Coffee/Tea";"02/03/2025";"Violations were cited in the following area(s).";"02B";"Hot TCS food item not held at or above 140 °F.";"Critical";"12";"A";"02/03/2025";"12/15/2025";"Cycle Inspection / Re-inspection";"40.75005923483";"-73.99210672446";;;;;;;"POINT (-73.992106724456 40.750059234828)"
"50083072";"G'S EATERY & BAKERY";"Queens";"135-36";"ROCKAWAY BOULEVARD";"11420";"7185290290";"Caribbean";"01/14/2025";"No violations were recorded at the time of this inspection.";;;"Not Applicable";;;;"12/15/2025";"Administrative Miscellaneous / Re-inspection";"40.67444678587";"-73.80259691191";"410";"28";"081400";"4255231";"4117600118";"QN55";"POINT (-73.802596911908 40.674446785872)"
"50171785";"MAMALEE CUISINE INC.";"Queens";"213-12";"48 AVENUE";"11364";"6466968461";;"01/01/1900";;;;"Not Applicable";;;;"12/15/2025";;"40.75550645499";"-73.76791043459";"411";"23";"143500";"4158372";"4073720006";"QN46";"POINT (-73.767910434589 40.755506454985)"
"50172126";"ARK BAGELS";"Manhattan";"110";"8 AVENUE";"10011";"3322050594";;"01/01/1900";;;;"Not Applicable";;;;"12/15/2025";;"40.74072455683";"-74.00179711859";"104";"03";"008100";"1081538";"1007650001";"MN13";"POINT (-74.001797118593 40.740724556829)"
"50173451";"GOLDEN CAPITAL RESTAURANT INC.";"Brooklyn";"6508";"11 AVENUE";"11219";"9176825408";;"01/01/1900";;;;"Not Applicable";;;;"12/15/2025";;"40.62851530312";"-74.00606314419";"310";"43";"021200";"3336303";"3057510043";"BK30";"POINT (-74.006063144187 40.62851530312)"
"50159531";"FIVE BELOW #8220";"Manhattan";"1175";"3 AVENUE";"10065";"2155467909";;"01/01/1900";;;;"Not Applicable";;;;"12/15/2025";;"40.76739470043";"-73.96229948901";"108";"05";"011800";"1043902";"1014237501";"MN31";"POINT (-73.96229948901 40.767394700431)"
"50172916";"BB16812009LLC";"Manhattan";"1681";"1 AVENUE";"10128";"6465674404";;"01/01/1900";;;;"Not Applicable";;;;"12/15/2025";;"40.77778108254";"-73.94872100863";"108";"05";"014602";"1050050";"1015500023";"MN32";"POINT (-73.948721008634 40.777781082541)"
"50113217";"ARI SUSHI";"Manhattan";"402";"WEST   44 STREET";"10036";"6466699999";"Asian/Asian Fusion";"09/29/2025";"Violations were cited in the following area(s).";"04M";"Live roaches in facility's food or non-food area.";"Critical";"38";"Z";"09/29/2025";"12/15/2025";"Cycle Inspection / Re-inspection";"40.75991292558";"-73.99215608826";"104";"03";"012100";"1026369";"1010530036";"MN15";"POINT (-73.992156088261 40.759912925582)"
"50172020";"EXECUTIVE DINING";"Manhattan";"270";"PARK AVENUE";"10017";"7043286780";;"01/01/1900";;;;"Not Applicable";;;;"12/15/2025";;"40.7556341595";"-73.97510900687";"105";"04";"009400";"1035421";"1012830021";"MN17";"POINT (-73.975109006874 40.755634159504)"
"50147240";"EL SAZON R D";"Manhattan";"83";"BAXTER STREET";"10013";"9179715402";"Caribbean";"10/19/2024";"No violations were recorded at the time of this inspection.";;;"Not Applicable";"0";;;"12/15/2025";"Inter-Agency Task Force / Initial Inspection";"40.7167133606";"-73.99981241693";"103";"01";"002900";"1002368";"1001990003";"MN27";"POINT (-73.999812416925 40.716713360597)"
"41366152";"DUNKIN";"Bronx";"3804";"BOSTON ROAD";"10475";"7182318014";"Donuts";"04/04/2023";"No violations were recorded at the time of this inspection.";;;"Not Applicable";;;;"12/15/2025";"Administrative Miscellaneous / Initial Inspection";"40.88135607553";"-73.83845462912";"212";"12";"046202";"2095179";"2052570001";"BX13";"POINT (-73.83845462912 40.881356075528)"
"50017360";"MOZZARELLA";"Brooklyn";"264";"LEE AVENUE";"11206";"7187835555";"Jewish/Kosher";"05/02/2025";"Violations were cited in the following area(s).";"02B";"Hot TCS food item not held at or above 140 °F.";"Critical";"27";;;"12/15/2025";"Cycle Inspection / Initial Inspection";"40.69989229506";"-73.95369674607";"301";"33";"053100";"3387767";"3022630048";"BK75";"POINT (-73.953696746066 40.699892295057)"
"50105261";"BLVD";"Queens";"31-17";"DITMARS BOULEVARD";"11105";"3478669997";;"01/01/1900";;;;"Not Applicable";;;;"12/15/2025";;"40.77575644844";"-73.9101543707";"401";"22";"011300";"4016931";"4008310034";"QN72";"POINT (-73.910154370696 40.775756448444)"
"50176828";"BK DUMPLING UES LLC";"Manhattan";"151";"WEST   34 STREET";"10001";"2017395377";;"01/01/1900";;;;"Not Applicable";;;;"12/15/2025";;"40.75050916477";"-73.98947917044";"105";"03";"010900";"1015219";"1008100001";"MN17";"POINT (-73.989479170444 40.750509164767)"
"40934037";"JIKJI CAFE";"Queens";;"AIRPORT";;"7187512003";"Japanese";"10/22/2025";"Violations were cited in the following area(s).";"04L";"Evidence of mice or live mice in establishment's food or non-food areas.";"Critical";"49";;;"12/15/2025";"Cycle Inspection / Initial Inspection";;;;;;;;;
"50176283";"NUMBER ONE CAVIAR LLC";"Manhattan";"14";"WALL STREET";"10005";"5165139223";;"01/01/1900";;;;"Not Applicable";;;;"12/15/2025";;"40.70733944656";"-74.01099730882";"101";"01";"000700";"1001025";"1000460009";"MN25";"POINT (-74.010997308824 40.70733944656)"
"50107047";"KING BARKA";"Manhattan";"2733";"FREDERICK DOUGLASS BOULEVARD";;"3476418572";"Caribbean";"07/27/2022";"Violations were cited in the following area(s).";"08A";"Establishment is not free of harborage or conditions conducive to rodents, insects or other pests.";"Not Critical";"30";;;"12/15/2025";"Pre-permit (Operational) / Initial Inspection";"0";"0";;;;;"1";;
"50131689";"SIDE BAR";"Manhattan";;"AMTRACK LEVEL";;"7329952865";"Bottled Beverages";"09/17/2025";"Violations were cited in the following area(s).";"08A";"Establishment is not free of harborage or conditions conducive to rodents, insects or other pests.";"Not Critical";"11";"A";"09/17/2025";"12/15/2025";"Cycle Inspection / Initial Inspection";;;;;;;;;
"50114947";"X FACTORY";"Brooklyn";"1105";"QUENTIN ROAD";"11229";"3476991729";"Eastern European";"11/14/2024";"Violations were cited in the following area(s).";"09B";"Thawing procedure improper.";"Not Critical";"13";"A";"11/14/2024";"12/15/2025";"Cycle Inspection / Re-inspection";"40.6078628174";"-73.96178848217";"315";"48";"055400";"3182310";"3067740045";"BK25";"POINT (-73.961788482174 40.607862817398)"
"50171201";"PHEBE'S";"Manhattan";"359";"BOWERY";"10003";"2123581902";;"01/01/1900";;;;"Not Applicable";;;;"12/15/2025";;"40.72682752215";"-73.99162602595";"103";"02";"003800";"1006568";"1004590008";"MN22";"POINT (-73.991626025954 40.726827522147)"
"41612260";"TROPICAL RESTAURANT";"Queens";;"JAMAICA AVENUE";;"7188468816";"Mediterranean";"05/20/2024";"Violations were cited in the following area(s).";"09B";"Thawing procedure improper.";"Not Critical";"41";;;"12/15/2025";"Cycle Inspection / Initial Inspection";;;;;;;;;
"50150851";"SAN ANTONIOS";"Manhattan";"247";"ELDRIDGE STREET";"10002";"8455983791";;"01/01/1900";;;;"Not Applicable";;;;"12/15/2025";;"40.72278980464";"-73.98959900953";"103";"01";"003601";"1087360";"1004220056";"MN27";"POINT (-73.989599009528 40.72278980464)"
"50135250";"PALENQUE COLOMBIAN FOOD";"Manhattan";;"WEST   15 STREET";;"7189541955";;"01/01/1900";;;;"Not Applicable";;;;"12/15/2025";;;;;;;;;;
"50175945";"101 CHICKEN";"Queens";"48-18";"NORTHERN BOULEVARD";"11101";"7188788685";;"01/01/1900";;;;"Not Applicable";;;;"12/15/2025";;"40.7536121197";"-73.91424489961";"401";"26";"017100";"4000822";"4001200012";"QN31";"POINT (-73.914244899613 40.753612119698)"
"50165386";"CIRCLE";"Manhattan";"1";"WORLD TRADE CENTER";"10007";"781065842";;"01/01/1900";;;;"Not Applicable";;;;"12/15/2025";;"40.71327344912";"-74.01281991754";"101";"01";"001300";"1088469";"1000580001";"MN25";"POINT (-74.012819917535 40.713273449121)"
"50175824";"FRESH CHOICE GOURMET CORP";"Bronx";"754";"BURKE AVENUE";"10467";"9294512031";;"01/01/1900";;;;"Not Applicable";;;;"12/15/2025";;"40.87138832285";"-73.8648308567";"212";"12";"033800";"2055613";"2045700025";"BX07";"POINT (-73.864830856697 40.871388322847)"
"50178977";"REY SMOOTHIE CORP";"Bronx";"9";"EAST MOUNT EDEN AVENUE";"10452";"9177366784";;"01/01/1900";;;;"Not Applicable";;;;"12/15/2025";;"40.84421643496";"-73.91442763733";"204";"14";"022702";"2094540";"2028470001";"BX41";"POINT (-73.914427637334 40.844216434959)"
"41580023";"SAGE";"Brooklyn";;"GRAHAM AVENUE";;"7182186644";"Thai";"08/14/2024";"Violations were cited in the following area(s).";"08A";"Establishment is not free of harborage or conditions conducive to rodents, insects or other pests.";"Not Critical";"78";;;"12/15/2025";"Cycle Inspection / Initial Inspection";;;;;;;;;
"50150632";"VIVI BUBBLE TEA";"Manhattan";"607";"9 AVENUE";"10036";"2129560288";"Coffee/Tea";"05/17/2025";"No violations were recorded at the time of this inspection.";;;"Not Applicable";"0";;;"12/15/2025";"Inter-Agency Task Force / Initial Inspection";"40.75924868605";"-73.99204065705";"104";"03";"012100";"1026363";"1010530029";"MN15";"POINT (-73.992040657046 40.759248686051)"
"50165472";"RANDALL MANOR";"Staten Island";"382";"FOREST AVENUE";"10301";"9175455416";;"01/01/1900";;;;"Not Applicable";;;;"12/15/2025";;"40.63098141599";"-74.10211897577";"501";"49";"005900";"5006935";"5002520006";"SI35";"POINT (-74.102118975768 40.630981415993)"
"50176895";"WIN-NY 1894 LLC";"Queens";"102-14";"ATLANTIC AVENUE";"11416";"4195311818";;"01/01/1900";;;;"Not Applicable";;;;"12/15/2025";;"40.68993427351";"-73.84253332383";"409";"29";"011400";"4197020";"4093800001";"QN54";"POINT (-73.842533323834 40.689934273512)"
"50172071";"THE SEAFOOD SPOT LLC.";"Bronx";"632";"WALTON AVENUE";"10451";"6469222027";;"01/01/1900";;;;"Not Applicable";;;;"12/15/2025";;"40.82124915288";"-73.92740648157";"204";"08";"006300";"2001077";"2023480053";"BX63";"POINT (-73.927406481566 40.821249152884)"
"41656924";"TENZAN";"Manhattan";;"2 AVENUE";;"2129805900";"Japanese";"09/29/2025";"Violations were cited in the following area(s).";"04M";"Live roaches in facility's food or non-food area.";"Critical";"23";;;"12/15/2025";"Cycle Inspection / Initial Inspection";;;;;;;;;
"50166452";"GEORGIAN TRADITION INC";"Brooklyn";"1001";"BRIGHTON BEACH AVENUE";"11235";"2016831717";;"01/01/1900";;;;"Not Applicable";;;;"12/15/2025";;"40.57801522412";"-73.95954492009";"313";"48";"061004";"3245413";"3087070452";"BK19";"POINT (-73.959544920089 40.578015224117)"
"50178817";"YUMMY TACOS LONG INC";"Queens";"227-15";"MERRICK BOULEVARD";"11413";"6465205285";;"01/01/1900";;;;"Not Applicable";;;;"12/15/2025";;"40.67691664327";"-73.74285110771";"413";"31";"063200";"4279369";"4129660015";"QN66";"POINT (-73.742851107712 40.676916643273)"
"50177871";"MIZNON ROCK LLC";"Manhattan";"30";"ROCKEFELLER PLAZA";"10112";"9178177600";;"01/01/1900";;;;"Not Applicable";;;;"12/15/2025";;"40.7587474378";"-73.97869222362";"105";"04";"010400";"1076262";"1012657501";"MN17";"POINT (-73.978692223615 40.758747437799)"
"50110806";"THE CENTURION LOUNGE";"Queens";;"AP HEADHOUSE";;"7185549605";"American";"05/22/2024";"No violations were recorded at the time of this inspection.";;;"Not Applicable";"0";"A";"05/22/2024";"12/15/2025";"Cycle Inspection / Initial Inspection";;;;;;;;;
"50178680";"NOODLEPAN THAI FUSION";"Staten Island";"1809";"VICTORY BOULEVARD";"10314";"7187277499";;"01/01/1900";;;;"Not Applicable";;;;"12/15/2025";;"40.61301759575";"-74.12358299993";"501";"50";"015100";"5010476";"5003710058";"SI07";"POINT (-74.123582999931 40.613017595746)"
"50165940";"TAQUERIA AL PASTOR";"Manhattan";"1966";"3 AVENUE";"10029";"6468977451";;"01/01/1900";;;;"Not Applicable";;;;"12/15/2025";;"40.79296268358";"-73.94366398326";"111";"08";"017200";"1052113";"1016360033";"MN33";"POINT (-73.943663983264 40.792962683578)"
"50161001";"MITSURU";"Manhattan";"149";"WEST    4 STREET";"10012";"3474397719";;"01/01/1900";;;;"Not Applicable";;;;"12/15/2025";;"40.7315158861";"-74.00055926654";"102";"02";"006500";"1083512";"1005520036";"MN23";"POINT (-74.000559266544 40.731515886104)"
"50179997";"ROMAINE EMPIRE, INC.";"Queens";"82-68";"164 STREET";"11432";"3122290099";;"01/01/1900";;;;"Not Applicable";;;;"12/15/2025";;"40.71724207656";"-73.80343285028";"408";"24";"126700";"4442431";"4068580001";"QN38";"POINT (-73.803432850281 40.717242076559)"
"50128307";"HAVELI INDIAN RESTAURANT & LOUNGE";"Queens";"24801-03";"UNION TURNPIKE";;"3479339656";"Indian";"10/19/2022";"Violations were cited in the following area(s).";"04L";"Evidence of mice or live mice in establishment's food or non-food areas.";"Critical";"28";;;"12/15/2025";"Pre-permit (Non-operational) / Initial Inspection";"0";"0";;;;;"4";;
"50148841";"MILKO FOODS LLC";"Queens";"40-05";"SKILLMAN AVENUE";"11104";"7187558138";;"01/01/1900";;;;"Not Applicable";;;;"12/15/2025";;"40.74719586468";"-73.92341650594";"402";"26";"017100";"4002375";"4001830292";"QN31";"POINT (-73.923416505935 40.747195864681)"
"40592285";"LUCKY STRIKE";"Manhattan";;"CHELSEA PIERS";"10011";"2128352695";"American";"05/05/2023";"Violations were cited in the following area(s).";"02B";"Hot TCS food item not held at or above 140 °F.";"Critical";"21";;;"12/15/2025";"Cycle Inspection / Initial Inspection";"40.74799238667";"-74.00849574392";;;;;;;"POINT (-74.008495743918 40.747992386672)"
"50178380";"D appetiz";"Brooklyn";"5002";"KINGS HIGHWAY";"11234";"5164300383";;"01/01/1900";;;;"Not Applicable";;;;"12/15/2025";;"40.63420498254";"-73.92840697371";"318";"45";"072400";"3213524";"3077340024";"BK58";"POINT (-73.928406973714 40.634204982535)"
"50171141";"SHREE KRUSHNA GLOBAL NEWS INC";"Manhattan";"22";"8 AVENUE";"10014";"9736528488";;"01/01/1900";;;;"Not Applicable";;;;"12/15/2025";;"40.73762289104";"-74.00472353074";"102";"03";"007700";"1011446";"1006250051";"MN23";"POINT (-74.004723530742 40.73762289104)"
"50146950";"DREAM FISHING TACKLE";"Brooklyn";"59";"NORMAN AVENUE";"11222";"7183899670";;"01/01/1900";;;;"Not Applicable";;;;"12/15/2025";;"40.72491620524";"-73.95331851112";"301";"33";"056100";"3065558";"3026180040";"BK76";"POINT (-73.953318511121 40.724916205243)"
"50153441";"BAKER FALLS";"Manhattan";"101";"AVENUE A BAKER FALLS";"10009";"9176870296";;"01/01/1900";;;;"Not Applicable";;;;"12/15/2025";;"40.72573151911";"-73.98377907544";"103";"02";"003200";"1083477";"1004340033";"MN22";"POINT (-73.983779075444 40.725731519113)"
"50173759";"FORMOSA";"Brooklyn";"43";"UNDERHILL AVENUE";"11238";"3473658992";;"01/01/1900";;;;"Not Applicable";;;;"12/15/2025";;"40.67969202852";"-73.96501722493";"308";"35";"020300";"3027677";"3011310001";"BK64";"POINT (-73.965017224926 40.679692028517)"
"50179018";"MADRESS LLC";"Brooklyn";"348";"NOSTRAND AVENUE";"11216";"7184128112";;"01/01/1900";;;;"Not Applicable";;;;"12/15/2025";;"40.68782518245";"-73.95107292501";"303";"36";"024300";"3000000";"3017970062";"BK75";"POINT (-73.951072925008 40.687825182452)"
"50121003";"RUBY KING";"Queens";"36-13";"COLLEGE POINT BOULEVARD";"11354";"3477329361";;"01/01/1900";;;;"Not Applicable";;;;"12/15/2025";;"40.76132926631";"-73.83525619063";"407";"20";"086900";"4584177";"4049680006";"QN22";"POINT (-73.83525619063 40.761329266314)"
"50167801";"SAIBAIWEI, INC.";"Queens";"40-33";"MAIN STREET";"11354";"7187990472";;"01/01/1900";;;;"Not Applicable";;;;"12/15/2025";;"40.75865321378";"-73.82967870076";"407";"20";"085300";"4113543";"4050190001";"QN22";"POINT (-73.829678700764 40.758653213776)"
"50155685";"CULINARY HUMAN SERVICES";"Manhattan";"3775";"10 AVENUE";"10034";"9175185224";;"01/01/1900";;;;"Not Applicable";;;;"12/15/2025";;"40.86135114942";"-73.9211840876";"112";"10";"029900";"1064490";"1021990001";"MN01";"POINT (-73.921184087598 40.861351149422)"
"50113653";"EYVAL RESTAURANT";"Brooklyn";"25";"BOGART STREET";"11206";"7143481245";;"01/01/1900";;;;"Not Applicable";;;;"12/15/2025";;"40.70422704824";"-73.93300936041";"301";"34";"048500";"3071585";"3031180016";"BK78";"POINT (-73.933009360408 40.704227048237)"
"50162621";"ZZ WINE AND BEER";"Brooklyn";"491";"TOMPKINS AVENUE";"11216";"3474899910";;"01/01/1900";;;;"Not Applicable";;;;"12/15/2025";;"40.68048208943";"-73.94333393396";"303";"36";"026900";"3053482";"3018550002";"BK75";"POINT (-73.943333933962 40.680482089433)"
"50172481";"ROCKAWAY BEACH PICKLEBALL LLC";"Queens";"97-25";"BEACH CHANNEL DRIVE";"11693";"7184742222";;"01/01/1900";;;;"Not Applicable";;;;"12/15/2025";;"40.58688424645";"-73.82031836658";"414";"32";"094201";"4303688";"4161530028";"QN10";"POINT (-73.820318366583 40.586884246452)"
"50148695";"BUFFALO WILD WINGS";"Manhattan";"2907";"BROADWAY";"10025";"7187861844";;"01/01/1900";;;;"Not Applicable";;;;"12/15/2025";;"40.80633813343";"-73.96512740592";"109";"07";"019900";"1057350";"1018950055";"MN09";"POINT (-73.965127405919 40.806338133425)"
"50166564";"ESPURRESSO CAT CAFE";"Queens";"208-03";"35 AVENUE";"11361";"6468985181";;"01/01/1900";;;;"Not Applicable";;;;"12/15/2025";;"40.76749189871";"-73.779966085";"411";"19";"109700";"4135652";"4060970028";"QN46";"POINT (-73.779966085 40.767491898707)"
"50167466";"JMC FRESH FOODS CORP";"Bronx";"1000";"WESTCHESTER AVENUE";"10459";"6462289566";;"01/01/1900";;;;"Not Applicable";;;;"12/15/2025";;"40.82368502413";"-73.89379030612";"202";"17";"015900";"2130624";"2027247503";"BX27";"POINT (-73.893790306115 40.823685024131)"
"50171495";"ANSA COFFEE";"Manhattan";"101";"THOMPSON STREET";"10012";"6462631296";;"01/01/1900";;;;"Not Applicable";;;;"12/15/2025";;"40.72549659664";"-74.00211780449";"102";"03";"004900";"1007792";"1005030028";"MN24";"POINT (-74.002117804485 40.725496596641)"
"50173006";"JOEY BATS CAFE";"Manhattan";"89";"EAST   42 STREET";"10017";"4133749481";;"01/01/1900";;;;"Not Applicable";;;;"12/15/2025";;"40.75209393316";"-73.97760435438";"105";"04";"009200";"1035381";"1012800001";"MN19";"POINT (-73.977604354379 40.752093933162)"
"50158375";"EMPANADA PAPA";"Manhattan";"20";"UNION SQUARE WEST";"10003";"6469195170";;"01/01/1900";;;;"Not Applicable";;;;"12/15/2025";;"40.73660979179";"-73.99067937838";"105";"02";"005200";"1016108";"1008450002";"MN13";"POINT (-73.990679378381 40.736609791786)"
"50179268";"YU LAO TOU MALATANG INC";"Queens";"133-35";"ROOSEVELT AVENUE";"11354";"9172852978";;"01/01/1900";;;;"Not Applicable";;;;"12/15/2025";;"40.75850199526";"-73.83324180899";"407";"20";"087100";"4112276";"4049730016";"QN22";"POINT (-73.833241808988 40.758501995257)"
"50169677";"BERRY STOP";"Manhattan";;"HIGHLINE PARK WEST   22 STREET";;"2126334359";"Other";"07/26/2025";"No violations were recorded at the time of this inspection.";;;"Not Applicable";"0";"N";;"12/15/2025";"Inter-Agency Task Force / Initial Inspection";;;;;;;;;
"50160016";"LILLI AND LOO";"Manhattan";"198";"9 AVENUE";"10011";"2125104122";;"01/01/1900";;;;"Not Applicable";;;;"12/15/2025";;"40.74591490365";"-74.00172868902";"104";"03";"009300";"1013337";"1007460001";"MN13";"POINT (-74.001728689015 40.74591490365)"
"50159882";"SAKE BAR ASOKO";"Manhattan";"127";"EAST BROADWAY";"10002";"3109233599";;"01/01/1900";;;;"Not Applicable";;;;"12/15/2025";;"40.71387773902";"-73.99204609584";"103";"01";"000600";"1003578";"1002830041";"MN28";"POINT (-73.992046095844 40.713877739016)"
"50170702";"LOWLIFE COFFEE";"Brooklyn";"55";"PORTER SBR";;"6125169439";"Coffee/Tea";"07/23/2025";"Violations were cited in the following area(s).";"09E";"Wash hands sign not posted near or above hand washing sink.";"Not Critical";"33";"N";;"12/15/2025";"Pre-permit (Operational) / Initial Inspection";"0";"0";;;;;"3";;
"40837042";"MALECON RESTAURANT";"Bronx";;"BROADWAY";;"7184325155";"Latin American";"12/12/2022";"Violations were cited in the following area(s).";"02B";"Hot TCS food item not held at or above 140 °F.";"Critical";"23";"B";"12/12/2022";"12/15/2025";"Cycle Inspection / Re-inspection";;;;;;;;;
"50126672";"YOWALLA, INC.";"0";"2";;;"6097997555";;"01/01/1900";;;;"Not Applicable";;;;"12/15/2025";;;;;;;;;;
"50145395";"DELICIOUS SOUL FOOD";"Bronx";"596";"GRAND CONCOURSE";"10451";"7184503757";;"01/01/1900";;;;"Not Applicable";;;;"12/15/2025";;"40.81974461029";"-73.92673972883";"204";"17";"006100";"2002447";"2024430041";"BX14";"POINT (-73.926739728826 40.819744610285)"
"50146906";"STONED PIZZA";"Manhattan";"235";"EAST    4 STREET";"10009";"2122020005";;"01/01/1900";;;;"Not Applicable";;;;"12/15/2025";;"40.72337910471";"-73.98275505516";"103";"02";"003200";"1005028";"1004000039";"MN22";"POINT (-73.982755055159 40.723379104706)"
"50168470";"X.O Mexican Kitchen Bar";"Staten Island";"1072";"BAY STREET";"10305";"3479256140";;"01/01/1900";;;;"Not Applicable";;;;"12/15/2025";;"40.61689568463";"-74.06822097183";"501";"49";"000800";"5042579";"5028450031";"SI37";"POINT (-74.068220971831 40.616895684628)"
"50177065";"MAMA PIZZA";"Queens";"142-54";"ROOSEVELT AVENUE";"11354";"9173285912";;"01/01/1900";;;;"Not Applicable";;;;"12/15/2025";;"40.76073280886";"-73.82540300794";"407";"20";"085500";"4113632";"4050210025";"QN22";"POINT (-73.82540300794 40.760732808863)"
"50162392";"LITTLE FLOWER CAFE";"Queens";"25-35";"36 AVENUE";"11106";"9177428759";;"01/01/1900";;;;"Not Applicable";;;;"12/15/2025";;"40.75818373959";"-73.93315341466";"401";"22";"004700";"4004039";"4003390066";"QN70";"POINT (-73.933153414661 40.758183739588)"
"50106739";"LE PETIT MONSTRE";"Bronx";"82";"WASHINGTON AVENUE";;"9172978347";"Vegan";"06/05/2024";"Violations were cited in the following area(s).";"10E";"Accurate thermometer not provided or properly located in refrigerated, cold storage or hot holding equipment";"Not Critical";"4";"A";"06/05/2024";"12/15/2025";"Cycle Inspection / Initial Inspection";"0";"0";;;;;"2";;
"50179465";"KAY KREYOL LLC";"Brooklyn";"294";"ROGERS AVENUE";"11225";"7187174842";;"01/01/1900";;;;"Not Applicable";;;;"12/15/2025";;"40.66621113578";"-73.95363731076";"309";"35";"032300";"3034150";"3012950143";"BK63";"POINT (-73.953637310759 40.66621113578)"
"50110164";"JAMNJ ENTERPRISES LLC";"Staten Island";"1400";"TRAVIS AVENUE";"10314";"3473083314";;"01/01/1900";;;;"Not Applicable";;;;"12/15/2025";;"40.60154854616";"-74.18213400583";"502";"50";"029102";"5168980";"5027900001";"SI05";"POINT (-74.182134005827 40.601548546163)"
"50165716";"SPOTO PIZZA";"Manhattan";"587";"3 AVENUE";"10016";"9175417444";;"01/01/1900";;;;"Not Applicable";;;;"12/15/2025";;"40.7485117138";"-73.9760861341";"106";"04";"007800";"1090414";"1009190005";"MN20";"POINT (-73.976086134096 40.748511713798)"
"50173399";"NORTHERN BITES NYC INC.";"Queens";"136-20";"ROOSEVELT AVENUE";"11354";"9299966888";;"01/01/1900";;;;"Not Applicable";;;;"12/15/2025";;"40.75977790824";"-73.82923542849";"407";"20";"085300";"4113546";"4050190005";"QN22";"POINT (-73.829235428489 40.759777908235)"
"40557901";"LA ISLA CUCHIFRITOS";"Bronx";;"WESTCHESTER AVENUE";;"7188937591";"Latin American";"05/17/2023";"No violations were recorded at the time of this inspection.";;;"Not Applicable";;;;"12/15/2025";"Administrative Miscellaneous / Initial Inspection";;;;;;;;;
"41403094";"HIGH DIVE";"Brooklyn";"243";"FIFTH AVENUE";"11215";"7187880401";"American";"06/14/2025";"No violations were recorded at the time of this inspection.";;;"Not Applicable";"0";;;"12/15/2025";"Inter-Agency Task Force / Initial Inspection";"40.67500503968";"-73.98142290848";"306";"39";"013300";"3020436";"3009620007";"BK37";"POINT (-73.981422908478 40.675005039677)"
"50163311";"COPAS LOUNGE";"Bronx";"894";"EAST TREMONT AVENUE";"10460";"6465334509";;"01/01/1900";;;;"Not Applicable";;;;"12/15/2025";;"40.84216471092";"-73.88457700953";"206";"15";"035900";"2010623";"2029850045";"BX17";"POINT (-73.884577009534 40.84216471092)"
"50118706";"STARBUCKS CONNECTOR/CIBO EXPRESS";"Queens";;"TERMINAL C, LEVEL 3, CONCOURSE E";;"2159970667";"Coffee/Tea";"10/30/2024";"Violations were cited in the following area(s).";"06F";"Wiping cloths not stored clean and dry, or in a sanitizing solution, between uses.";"Critical";"11";"A";"10/30/2024";"12/15/2025";"Cycle Inspection / Initial Inspection";;;;;;;;;
"50145368";"PEN & FROG SOCIAL CLUB LLC";"Manhattan";"86";"BEDFORD STREET";"10014";"5184415558";;"01/01/1900";;;;"Not Applicable";;;;"12/15/2025";;"40.73206746593";"-74.0052318918";"102";"03";"007300";"1083531";"1005880003";"MN23";"POINT (-74.005231891796 40.732067465926)"
"50175418";"W & L 88 INC";"Manhattan";"14";"ELIZABETH STREET";"10013";"9295298898";;"01/01/1900";;;;"Not Applicable";;;;"12/15/2025";;"40.71583500555";"-73.99740633757";"103";"01";"002900";"1084353";"1002020025";"MN27";"POINT (-73.997406337566 40.715835005553)"
"50179001";"ARIANE DE MESA";"Manhattan";"42";"WEST   42 STREET";"10036";"9293321286";;"01/01/1900";;;;"Not Applicable";;;;"12/15/2025";;"40.75406823942";"-73.98232117075";"105";"04";"008400";"1085593";"1012570002";"MN17";"POINT (-73.982321170752 40.754068239421)"
"50149179";"BLUE COLLAR BURGER";"Brooklyn";"704";"MANHATTAN AVENUE";"11222";"7184182326";;"01/01/1900";;;;"Not Applicable";;;;"12/15/2025";;"40.72574728654";"-73.95190725414";"301";"33";"056100";"3065649";"3026200037";"BK76";"POINT (-73.951907254139 40.725747286544)"
"50085035";"STORE HOUSE";"Manhattan";"757";"6 AVENUE";"10010";"6464766276";"American";"11/13/2024";"Violations were cited in the following area(s).";"09B";"Thawing procedure improper.";"Not Critical";"19";"B";"11/13/2024";"12/15/2025";"Cycle Inspection / Re-inspection";"40.74432540467";"-73.99177539057";"104";"03";"009100";"1015012";"1008010034";"MN13";"POINT (-73.991775390574 40.744325404669)"
"50172850";"DA DAMASO INC";"Staten Island";"3981";"AMBOY ROAD";"10308";"2124705328";;"01/01/1900";;;;"Not Applicable";;;;"12/15/2025";;"40.55050572657";"-74.15045466172";"503";"51";"014604";"5070208";"5054280001";"SI54";"POINT (-74.150454661719 40.550505726565)"
"50111311";"CANTINA TAQUERIA & TEQUILIA BAR";"Manhattan";"2099";"FREDERICK DOUGLASS BOULEVARD";;"7577549410";"Mexican";"06/15/2022";"Violations were cited in the following area(s).";"04L";"Evidence of mice or live mice present in facility's food and/or non-food areas.";"Critical";"32";;;"12/15/2025";"Cycle Inspection / Initial Inspection";"0";"0";;;;;"1";;
"50159943";"HUDSON CABIN";"Manhattan";"0";"WEST   59 STREET";;"6466372137";;"01/01/1900";;;;"Not Applicable";;;;"12/15/2025";;"0";"0";;;;;"1";;
"50137049";"PLAYGROUND";"Queens";"71-30";"ROOSEVELT AVENUE";"11372";"7187797912";"Thai";"12/17/2024";"No violations were recorded at the time of this inspection.";;;"Not Applicable";"0";"A";"12/17/2024";"12/15/2025";"Cycle Inspection / Re-inspection";"40.74656313193";"-73.89401117462";"404";"25";"026500";"4311572";"4013030012";"QN50";"POINT (-73.894011174615 40.746563131926)"
"50150830";"TERRACE BAR (CONNECTOR LEVEL)";"Queens";;"AIRPORT";;"2159970667";;"01/01/1900";;;;"Not Applicable";;;;"12/15/2025";;;;;;;;;;
"50162243";"PALENQUE HOME MADE COLOMBIAN FOOD INC.";"Manhattan";"1802";"65 STREET TRANVERSE";;"7189541955";;"01/01/1900";;;;"Not Applicable";;;;"12/15/2025";;"0";"0";;;;;"1";;
"50170618";"AUSTIN STREET ICES, INC.";"Queens";"70-52";"AUSTIN STREET";"11375";"5164580817";;"01/01/1900";;;;"Not Applicable";;;;"12/15/2025";;"40.72039980022";"-73.84548421169";"406";"29";"071100";"4077473";"4032340185";"QN17";"POINT (-73.845484211691 40.720399800224)"
"50061476";"CITI FIELD HONDA CLUBHOUSE";"Queens";"0";"126 ST & ROOSEVELT AVENUE";;"7185958192";"American";"09/20/2024";"Violations were cited in the following area(s).";"02B";"Hot TCS food item not held at or above 140 °F.";"Critical";"7";"A";"09/20/2024";"12/15/2025";"Cycle Inspection / Initial Inspection";"0";"0";;;;;"4";;
"50179482";"ROMAINE EMPIRE INC";"Manhattan";"524";"WEST   59 STREET";"10019";"3122290099";;"01/01/1900";;;;"Not Applicable";;;;"12/15/2025";;"40.77077911242";"-73.98851200397";"104";"06";"014700";"1027084";"1010870005";"MN14";"POINT (-73.988512003965 40.770779112416)"
"50032620";"BAREBURGER";"Queens";"48-19";"VERNON BOULEVARD";"11101";"5168158243";"Hamburgers";"10/19/2024";"No violations were recorded at the time of this inspection.";;;"Not Applicable";"0";;;"12/15/2025";"Inter-Agency Task Force / Initial Inspection";"40.74391012893";"-73.95369129769";"402";"26";"000700";"4000254";"4000440001";"QN31";"POINT (-73.953691297685 40.743910128927)"
"50164864";"TONGDEE THAI";"Brooklyn";"180";"5 AVENUE";"11217";"7182308280";;"01/01/1900";;;;"Not Applicable";;;;"12/15/2025";;"40.67731862084";"-73.97985398744";"306";"39";"013100";"3019564";"3009490049";"BK37";"POINT (-73.979853987443 40.67731862084)"
"50176873";"Wingstop";"Queens";"126-14";"MERRICK BOULEVARD";"11434";"4195311818";;"01/01/1900";;;;"Not Applicable";;;;"12/15/2025";;"40.68185764261";"-73.76609459177";"412";"27";"033401";"4270272";"4125260001";"QN08";"POINT (-73.766094591774 40.681857642614)"
"50167644";"AL HIRSCHFELD THEATRE";"Manhattan";"302";"WEST   45 STREET";"10036";"9142154090";;"01/01/1900";;;;"Not Applicable";;;;"12/15/2025";;"40.75934448832";"-73.98886412313";"104";"03";"012100";"1024993";"1010350037";"MN15";"POINT (-73.98886412313 40.759344488324)"
"50167585";"POPUP BAGELS INC";"Manhattan";"7";"PENN PLAZA";"10001";"9787614714";;"01/01/1900";;;;"Not Applicable";;;;"12/15/2025";;"40.74968328606";"-73.99343133054";"105";"03";"010100";"1014343";"1007800036";"MN17";"POINT (-73.993431330544 40.749683286057)"
"50163421";"MYSTTIK HOLIDAYS INC";"Manhattan";"1";"HERALD SQUARE";"10001";"9173063128";;"01/01/1900";;;;"Not Applicable";;;;"12/15/2025";;"40.75054190782";"-73.98754102176";"105";"04";"010900";"1089436";"1008100045";"MN17";"POINT (-73.987541021756 40.750541907818)"
"50134077";"KAKES";"Queens";"10-43";"44 DRIVE";"11101";"9172024214";;"01/01/1900";;;;"Not Applicable";;;;"12/15/2025";;"40.74875614479";"-73.95072844656";"402";"26";"001900";"4005238";"4004480005";"QN31";"POINT (-73.950728446563 40.748756144792)"
"50155939";"LOS MUNCHIES";"Manhattan";"421B";"WEST  202 STREET";"10034";"6464102878";;"01/01/1900";;;;"Not Applicable";;;;"12/15/2025";;"40.8607574109";"-73.91991585469";"112";"10";"029900";;"1";"MN01";"POINT (-73.919915854685 40.860757410895)"
"40825908";"POLANCO RESTAURANT BBQ";"Manhattan";"2421";"ADAM CLAYTON POWELL JR B";;"2128621090";"Latin American";"02/09/2022";"Violations were cited in the following area(s).";"02B";"Hot food item not held at or above 140º F.";"Critical";"20";;;"12/15/2025";"Cycle Inspection / Initial Inspection";"0";"0";;;;;"1";;
"50178002";"DARK NECESSITY LLC";"Brooklyn";"679";"CLASSON AVENUE";"11238";"9177578180";;"01/01/1900";;;;"Not Applicable";;;;"12/15/2025";;"40.67703868008";"-73.95927912326";"308";"35";"030500";"3028287";"3011490004";"BK61";"POINT (-73.959279123259 40.677038680077)"
"50170364";"290 HUDSON CAFE LLC";"Manhattan";"290";"HUDSON STREET";"10013";"2017416271";;"01/01/1900";;;;"Not Applicable";;;;"12/15/2025";;"40.72551557765";"-74.0076017297";"102";"03";"003700";"1009738";"1005797501";"MN24";"POINT (-74.007601729696 40.725515577654)"
"50178094";"DAR 525";"Brooklyn";"168";"DRIGGS AVENUE";"11222";"3473060847";;"01/01/1900";;;;"Not Applicable";;;;"12/15/2025";;"40.72298578143";"-73.94518809409";"301";"33";"057100";"3067013";"3026850041";"BK76";"POINT (-73.945188094092 40.722985781434)"
"41495141";"EL CERRITO RESTAURANT";"Bronx";;"ELDER AVENUE";;"7183288553";"Mexican";"01/30/2023";"Violations were cited in the following area(s).";"04M";"Live roaches in facility's food or non-food area.";"Critical";"9";"A";"01/30/2023";"12/15/2025";"Cycle Inspection / Re-inspection";;;;;;;;;
"50176723";"LATINO BITES";"Queens";"45-10";"46 STREET";"11104";"2035126844";;"01/01/1900";;;;"Not Applicable";;;;"12/15/2025";;"40.74269676997";"-73.91880245834";"402";"26";"018300";"4001953";"4001640001";"QN31";"POINT (-73.918802458339 40.742696769965)"
"50130826";"VIRGIN ATLANTIC CLUB JFK";"Queens";;"JFK AIRPORT";"11430";"8663723035";;"01/01/1900";;;;"Not Applicable";;;;"12/15/2025";;"40.64831282607";"-73.78828149759";;;;;;;"POINT (-73.788281497594 40.648312826068)"
"50166957";"OLMO";"Brooklyn";"103";"SARATOGA AVENUE";"11233";"7185411430";;"01/01/1900";;;;"Not Applicable";;;;"12/15/2025";;"40.6831862884";"-73.91723467572";"316";"41";"037300";"3337910";"3015060001";"BK79";"POINT (-73.917234675717 40.683186288397)"
"50169698";"2ND AV PIZZA";"Manhattan";"493";"2 AVENUE";"10016";"3475544932";;"01/01/1900";;;;"Not Applicable";;;;"12/15/2025";;"40.7407775079";"-73.9788026443";"106";"02";"006600";"1019882";"1009080033";"MN20";"POINT (-73.978802644296 40.740777507899)"
"50170397";"SUBWAY";"Queens";"138-05";"QUEENS BOULEVARD";"11435";"9174455726";;"01/01/1900";;;;"Not Applicable";;;;"12/15/2025";;"40.70864549223";"-73.81844872827";"408";"24";"021400";"4206515";"4096490044";"QN35";"POINT (-73.81844872827 40.708645492234)"
"50172499";"AMORE N2 CAFFE INC.";"Manhattan";"126";"WEST   25 STREET";"10001";"6468013868";;"01/01/1900";;;;"Not Applicable";;;;"12/15/2025";;"40.7445752485";"-73.99282554406";"104";"03";"009100";"1014988";"1008000056";"MN13";"POINT (-73.992825544061 40.744575248503)"
"50168859";"BINX";"Manhattan";"39";"CHRISTOPHER STREET";"10014";"6466280071";;"01/01/1900";;;;"Not Applicable";;;;"12/15/2025";;"40.73380226647";"-74.00152270072";"102";"03";"007300";"1010676";"1006100030";"MN23";"POINT (-74.001522700717 40.733802266469)"
"50175900";"NEW SIMMER DOWN RESTAURANT & BAKERY CORP";"Brooklyn";"133";"ROCKAWAY AVENUE";"11233";"6466752869";;"01/01/1900";;;;"Not Applicable";;;;"12/15/2025";;"40.67815573788";"-73.91075144818";"316";"37";"036900";"3042231";"3015520007";"BK79";"POINT (-73.910751448178 40.678155737881)"
"50168189";"BROOKLYN CHCKN 'N' LBSTR";"Brooklyn";"446";"MOTHER GASTON BOULEVARD";"11212";"5512718162";;"01/01/1900";;;;"Not Applicable";;;;"12/15/2025";;"40.66815859441";"-73.90647884945";"316";"41";"090600";"3252323";"3035260325";"BK81";"POINT (-73.906478849452 40.668158594407)"
"50143389";"CHAMPION PIZZA REGO PARK INC.";"Queens";"2034";"GREEN ACRES MALL";;"9176895663";;"01/01/1900";;;;"Not Applicable";;;;"12/15/2025";;"0";"0";;;;;"4";;
"41194745";"GOLDEN PALACE GOURMET";"Queens";"14009";"CHERRRY AVENUE";;"7188864383";"Chinese";"04/30/2025";"Violations were cited in the following area(s).";"04L";"Evidence of mice or live mice in establishment's food or non-food areas.";"Critical";"34";"Z";"04/30/2025";"12/15/2025";"Cycle Inspection / Re-inspection";"0";"0";;;;;"4";;
"50150842";"CEGM (CONNECTOR LEVEL)";"Queens";;"AIRPORT";;"2159970667";;"01/01/1900";;;;"Not Applicable";;;;"12/15/2025";;;;;;;;;;
"50179371";"MIRNA'S PUPUSERIA DELI CORP";"Brooklyn";"1350";"FLATBUSH AVENUE";"11210";"3477309001";;"01/01/1900";;;;"Not Applicable";;;;"12/15/2025";;"40.63747286812";"-73.95261606791";"314";"45";"077000";"3120833";"3052260017";"BK42";"POINT (-73.952616067913 40.637472868118)"
"50157568";"KUNG FU TEA";"Staten Island";"3845";"RICHMOND AVENUE";"10312";"9176692366";;"01/01/1900";;;;"Not Applicable";;;;"12/15/2025";;"40.54405727909";"-74.16505522948";"503";"51";"014604";"5073200";"5054970150";"SI54";"POINT (-74.165055229477 40.544057279091)"
"50167062";"SOURAJI WEST";"Manhattan";"177";"9 AVENUE";"10011";"6467048507";;"01/01/1900";;;;"Not Applicable";;;;"12/15/2025";;"40.74491030685";"-74.00248653174";"104";"03";"008900";"1088184";"1007187501";"MN13";"POINT (-74.002486531737 40.744910306852)"
"50175219";"BAOS & BOWLS";"Manhattan";"401";"EAST   13 STREET";"10009";"9173228800";;"01/01/1900";;;;"Not Applicable";;;;"12/15/2025";;"40.73051549312";"-73.98273155251";"103";"02";"003400";"1006009";"1004410001";"MN22";"POINT (-73.982731552513 40.730515493118)"
"50171987";"TASTY GROUP KITCHEN MANAGEMENT INC";"Manhattan";"45";"WEST   39 STREET";"10018";"6467264008";;"01/01/1900";;;;"Not Applicable";;;;"12/15/2025";;"40.75221024968";"-73.98376177506";"105";"04";"008400";"1016038";"1008410014";"MN17";"POINT (-73.983761775062 40.752210249675)"
"41319774";"BAR 43";"Queens";"43-06";"43 STREET";"11104";"7183613090";"American";"10/20/2024";"Violations were cited in the following area(s).";"09B";"Thawing procedure improper.";"Not Critical";"23";;;"12/15/2025";"Cycle Inspection / Initial Inspection";"40.74491621284";"-73.92120327119";"402";"26";"018102";"4001950";"4001630025";"QN31";"POINT (-73.921203271185 40.74491621284)"
"50154307";"SHISO";"Manhattan";"214";"EAST    9 STREET";"10003";"8563046681";;"01/01/1900";;;;"Not Applicable";;;;"12/15/2025";;"40.72968729199";"-73.98844695387";"103";"02";"003800";"1006741";"1004647501";"MN22";"POINT (-73.988446953867 40.729687291985)"
"50147778";"PICCOLO CUCINA CASA";"Brooklyn";"141";"NEVINS STREET";"11217";"9292950015";;"01/01/1900";;;;"Not Applicable";;;;"12/15/2025";;"40.68431019555";"-73.98384687986";"302";"33";"003900";"3332449";"3001970002";"BK38";"POINT (-73.98384687986 40.684310195545)"
"50167560";"RIVIAN LLC";"Manhattan";"60";"10 AVENUE";"10011";"3106006670";;"01/01/1900";;;;"Not Applicable";;;;"12/15/2025";;"40.74229977617";"-74.00813774823";"104";"03";"008300";"1000000";"1007120006";"MN13";"POINT (-74.008137748225 40.742299776174)"
"50168750";"EL CARRITO ROJO FOODS CORP";"Brooklyn";"3029";"STILLWELL AVENUE";"11224";"6464079438";;"01/01/1900";;;;"Not Applicable";;;;"12/15/2025";;"40.57455138438";"-73.98100459715";"313";"47";"035200";"3000000";"3086950433";"BK21";"POINT (-73.981004597151 40.574551384379)"
"50154567";"MISS YOLO'S TACOS";"Manhattan";"230";"PARK AVENUE";"10169";"6462665642";;"01/01/1900";;;;"Not Applicable";;;;"12/15/2025";;"40.75450075314";"-73.97595042717";"105";"04";"009200";"1036185";"1013000001";"MN19";"POINT (-73.975950427165 40.75450075314)"
"50167715";"LU.MA FOOD INC";"Brooklyn";"247";"VIA SMITH";;"393349703944";;"01/01/1900";;;;"Not Applicable";;;;"12/15/2025";;"0";"0";;;;;"3";;
"41395397";"CITI FIELD PAT LAFRIEDA/KOSHER GRILL - STAND 142";"Queens";;"AND ROOSEVELT AVENUE";;"7185958100";"American";"09/13/2025";"No violations were recorded at the time of this inspection.";;;"Not Applicable";"0";"A";"09/13/2025";"12/15/2025";"Cycle Inspection / Initial Inspection";;;;;;;;;
"50178538";"VANDERBUILT MARKET  - BARS & EATERIES";"Manhattan";"230";"PARK AVENUE";"10169";"9162932688";;"01/01/1900";;;;"Not Applicable";;;;"12/15/2025";;"40.75450075314";"-73.97595042717";"105";"04";"009200";"1036185";"1013000001";"MN19";"POINT (-73.975950427165 40.75450075314)"
"50111227";"THE L HOTEL";"Brooklyn";"135";"32 STREET";"11232";"7183612521";;"01/01/1900";;;;"Not Applicable";;;;"12/15/2025";;"40.65709134252";"-74.00298421993";"307";"38";"010100";"3010007";"3006760053";"BK32";"POINT (-74.00298421993 40.657091342519)"
"50178156";"JOE & THE JUICE NEW YORK LLC";"Manhattan";"315";"HUDSON STREET";"10013";"8457424505";;"01/01/1900";;;;"Not Applicable";;;;"12/15/2025";;"40.72630333294";"-74.00748997538";"102";"03";"003700";"1010362";"1005970012";"MN24";"POINT (-74.007489975375 40.726303332939)"
"50179691";"JAMAICA'S NYAM GOOD RESTAURANT INC";"Queens";"199-10";"LINDEN BOULEVARD";"11412";"2257330185";;"01/01/1900";;;;"Not Applicable";;;;"12/15/2025";;"40.69418746755";"-73.75312670231";"412";"27";"037600";"4271784";"4126200005";"QN08";"POINT (-73.753126702313 40.694187467546)"
"50172930";"ROOM 52";"Manhattan";"212";"EAST   52 STREET";"10022";"2013203048";;"01/01/1900";;;;"Not Applicable";;;;"12/15/2025";;"40.75684045361";"-73.96932605765";"106";"04";"009800";"1038485";"1013250047";"MN19";"POINT (-73.969326057646 40.756840453612)"
"50176560";"VNO CF HOLDINGS LLC";"Manhattan";"537";"WEST   26 STREET";"10001";"2128947938";;"01/01/1900";;;;"Not Applicable";;;;"12/15/2025";;"40.75017471056";"-74.00416860956";"104";"03";"009900";"1012390";"1006980010";"MN13";"POINT (-74.004168609561 40.750174710555)"
"50178746";"PURA VIDA MIAMI";"Manhattan";"100";"5 AVENUE";"10011";"3058591311";;"01/01/1900";;;;"Not Applicable";;;;"12/15/2025";;"40.73687345373";"-73.99299236583";"105";"03";"005400";"1080621";"1008177502";"MN13";"POINT (-73.992992365827 40.736873453731)"
"50104306";"CHICK 'N CONE";"Manhattan";"1000";"SOUTH    8 AVENUE";"10019";"6467494418";;"01/01/1900";;;;"Not Applicable";;;;"12/15/2025";;"40.76681222692";"-73.98280874723";"104";"06";"013900";;"1";"MN15";"POINT (-73.982808747226 40.766812226924)"
"50170298";"KILLSBORO LLC";"Staten Island";"814";"RICHMOND TERRACE";"10301";"3472778680";;"01/01/1900";;;;"Not Applicable";;;;"12/15/2025";;"40.6447187016";"-74.09940505395";"501";"49";"008100";"5001742";"5000700020";"SI22";"POINT (-74.099405053953 40.644718701595)"
